{
"type": "FeatureCollection",
"name": "igrejas",
"crs": { "type": "name", "properties": { "name": "urn:ogc:def:crs:OGC:1.3:CRS84" } },
"features": [
{ "type": "Feature", "properties": { "Name": "Iglesia de San Salvador de Arnoia", "description": null, "timestamp": null, "begin": null, "end": null, "altitudeMode": null, "tessellate": -1, "extrude": 0, "visibility": -1, "drawOrder": null, "icon": null }, "geometry": { "type": "Point", "coordinates": [ -8.1384538, 42.254101, 0.0 ] } },
{ "type": "Feature", "properties": { "Name": "Iglesia de San Juan Bautista", "description": null, "timestamp": null, "begin": null, "end": null, "altitudeMode": null, "tessellate": -1, "extrude": 0, "visibility": -1, "drawOrder": null, "icon": null }, "geometry": { "type": "Point", "coordinates": [ -8.1434811, 42.2881526, 0.0 ] } },
{ "type": "Feature", "properties": { "Name": "Iglesia de San Esteban de Lagartóns", "description": null, "timestamp": null, "begin": null, "end": null, "altitudeMode": null, "tessellate": -1, "extrude": 0, "visibility": -1, "drawOrder": null, "icon": null }, "geometry": { "type": "Point", "coordinates": [ -8.4483543, 42.6906761, 0.0 ] } },
{ "type": "Feature", "properties": { "Name": "Mosteiro de Santa Maria de Aciveiro", "description": null, "timestamp": null, "begin": null, "end": null, "altitudeMode": null, "tessellate": -1, "extrude": 0, "visibility": -1, "drawOrder": null, "icon": null }, "geometry": { "type": "Point", "coordinates": [ -8.3015532, 42.6178815, 0.0 ] } },
{ "type": "Feature", "properties": { "Name": "Monasterio de San Salvador de Bergondo", "description": null, "timestamp": null, "begin": null, "end": null, "altitudeMode": null, "tessellate": -1, "extrude": 0, "visibility": -1, "drawOrder": null, "icon": null }, "geometry": { "type": "Point", "coordinates": [ -8.2412048, 43.3223701, 0.0 ] } },
{ "type": "Feature", "properties": { "Name": "Iglesia de San Martiño de Tiobre", "description": null, "timestamp": null, "begin": null, "end": null, "altitudeMode": null, "tessellate": -1, "extrude": 0, "visibility": -1, "drawOrder": null, "icon": null }, "geometry": { "type": "Point", "coordinates": [ -8.2019669, 43.293475, 0.0 ] } },
{ "type": "Feature", "properties": { "Name": "Iglesia de San Vicente de Cespón", "description": null, "timestamp": null, "begin": null, "end": null, "altitudeMode": null, "tessellate": -1, "extrude": 0, "visibility": -1, "drawOrder": null, "icon": null }, "geometry": { "type": "Point", "coordinates": [ -8.8548139, 42.6759583, 0.0 ] } },
{ "type": "Feature", "properties": { "Name": "Iglesia de San Xulián da Luaña", "description": null, "timestamp": null, "begin": null, "end": null, "altitudeMode": null, "tessellate": -1, "extrude": 0, "visibility": -1, "drawOrder": null, "icon": null }, "geometry": { "type": "Point", "coordinates": [ -8.7620091, 42.8519825, 0.0 ] } },
{ "type": "Feature", "properties": { "Name": "Iglesia de Santa María de Xaviña", "description": null, "timestamp": null, "begin": null, "end": null, "altitudeMode": null, "tessellate": -1, "extrude": 0, "visibility": -1, "drawOrder": null, "icon": null }, "geometry": { "type": "Point", "coordinates": [ -9.1528056, 43.1450814, 0.0 ] } },
{ "type": "Feature", "properties": { "Name": "Iglesia de Santa María de Cambre", "description": null, "timestamp": null, "begin": null, "end": null, "altitudeMode": null, "tessellate": -1, "extrude": 0, "visibility": -1, "drawOrder": null, "icon": null }, "geometry": { "type": "Point", "coordinates": [ -8.3440758, 43.2921596, 0.0 ] } },
{ "type": "Feature", "properties": { "Name": "Iglesia de San Pedro de Redonda", "description": null, "timestamp": null, "begin": null, "end": null, "altitudeMode": null, "tessellate": -1, "extrude": 0, "visibility": -1, "drawOrder": null, "icon": null }, "geometry": { "type": "Point", "coordinates": [ -9.2037323, 42.9218148, 0.0 ] } },
{ "type": "Feature", "properties": { "Name": "Iglesia de Santa María das Areas", "description": null, "timestamp": null, "begin": null, "end": null, "altitudeMode": null, "tessellate": -1, "extrude": 0, "visibility": -1, "drawOrder": null, "icon": null }, "geometry": { "type": "Point", "coordinates": [ -9.2636846, 42.9017399, 0.0 ] } },
{ "type": "Feature", "properties": { "Name": "Iglesia de Santiago de Mens", "description": null, "timestamp": null, "begin": null, "end": null, "altitudeMode": null, "tessellate": -1, "extrude": 0, "visibility": -1, "drawOrder": null, "icon": null }, "geometry": { "type": "Point", "coordinates": [ -8.8682204, 43.2977042, 0.0 ] } },
{ "type": "Feature", "properties": { "Name": "Iglesia de San Martiño de Moldes", "description": null, "timestamp": null, "begin": null, "end": null, "altitudeMode": null, "tessellate": -1, "extrude": 0, "visibility": -1, "drawOrder": null, "icon": null }, "geometry": { "type": "Point", "coordinates": [ -8.0279814, 42.8856771, 0.0 ] } },
{ "type": "Feature", "properties": { "Name": "Iglesia de Santa María de Melide", "description": null, "timestamp": null, "begin": null, "end": null, "altitudeMode": null, "tessellate": -1, "extrude": 0, "visibility": -1, "drawOrder": null, "icon": null }, "geometry": { "type": "Point", "coordinates": [ -8.025343, 42.9115044, 0.0 ] } },
{ "type": "Feature", "properties": { "Name": "Iglesia de San Martiño de Ozón", "description": null, "timestamp": null, "begin": null, "end": null, "altitudeMode": null, "tessellate": -1, "extrude": 0, "visibility": -1, "drawOrder": null, "icon": null }, "geometry": { "type": "Point", "coordinates": [ -9.1659555, 43.0850289, 0.0 ] } },
{ "type": "Feature", "properties": { "Name": "Iglesia de San Pedro de Leis de Nemancos", "description": null, "timestamp": null, "begin": null, "end": null, "altitudeMode": null, "tessellate": -1, "extrude": 0, "visibility": -1, "drawOrder": null, "icon": null }, "geometry": { "type": "Point", "coordinates": [ -9.1535957, 43.1151493, 0.0 ] } },
{ "type": "Feature", "properties": { "Name": "Iglesia de Santa Leocadia de Frixe", "description": null, "timestamp": null, "begin": null, "end": null, "altitudeMode": null, "tessellate": -1, "extrude": 0, "visibility": -1, "drawOrder": null, "icon": null }, "geometry": { "type": "Point", "coordinates": [ -9.2282979, 43.0113454, 0.0 ] } },
{ "type": "Feature", "properties": { "Name": "Iglesia de San Fins de Anllóns", "description": null, "timestamp": null, "begin": null, "end": null, "altitudeMode": null, "tessellate": -1, "extrude": 0, "visibility": -1, "drawOrder": null, "icon": null }, "geometry": { "type": "Point", "coordinates": [ -8.890338, 43.2286597, 0.0 ] } },
{ "type": "Feature", "properties": { "Name": "Iglesia de San Andrés de Tallo", "description": null, "timestamp": null, "begin": null, "end": null, "altitudeMode": null, "tessellate": -1, "extrude": 0, "visibility": -1, "drawOrder": null, "icon": null }, "geometry": { "type": "Point", "coordinates": [ -8.8463709, 43.2482115, 0.0 ] } },
{ "type": "Feature", "properties": { "Name": "Iglesia de San Martín de Cores", "description": null, "timestamp": null, "begin": null, "end": null, "altitudeMode": null, "tessellate": -1, "extrude": 0, "visibility": -1, "drawOrder": null, "icon": null }, "geometry": { "type": "Point", "coordinates": [ -8.8661801, 43.2830793, 0.0 ] } },
{ "type": "Feature", "properties": { "Name": "Iglesia de San Fiz de Freixeiro", "description": null, "timestamp": null, "begin": null, "end": null, "altitudeMode": null, "tessellate": -1, "extrude": 0, "visibility": -1, "drawOrder": null, "icon": null }, "geometry": { "type": "Point", "coordinates": [ -8.7395998, 43.0097391, 0.0 ] } },
{ "type": "Feature", "properties": { "Name": "Iglesia de Santa María de Paramos", "description": null, "timestamp": null, "begin": null, "end": null, "altitudeMode": null, "tessellate": -1, "extrude": 0, "visibility": -1, "drawOrder": null, "icon": null }, "geometry": { "type": "Point", "coordinates": [ -8.6912901, 42.99148, 0.0 ] } },
{ "type": "Feature", "properties": { "Name": "Iglesia de Santiago de Cereixo", "description": null, "timestamp": null, "begin": null, "end": null, "altitudeMode": null, "tessellate": -1, "extrude": 0, "visibility": -1, "drawOrder": null, "icon": null }, "geometry": { "type": "Point", "coordinates": [ -9.126424, 43.1321082, 0.0 ] } },
{ "type": "Feature", "properties": { "Name": "Iglesia de Santo Antoíño de Baíñas", "description": null, "timestamp": null, "begin": null, "end": null, "altitudeMode": null, "tessellate": -1, "extrude": 0, "visibility": -1, "drawOrder": null, "icon": null }, "geometry": { "type": "Point", "coordinates": [ -9.0191242, 43.0281449, 0.0 ] } },
{ "type": "Feature", "properties": { "Name": "Iglesia de Santa María de Herbón", "description": null, "timestamp": null, "begin": null, "end": null, "altitudeMode": null, "tessellate": -1, "extrude": 0, "visibility": -1, "drawOrder": null, "icon": null }, "geometry": { "type": "Point", "coordinates": [ -8.6282588, 42.7346882, 0.0 ] } },
{ "type": "Feature", "properties": { "Name": "Catedral de Santiago de Compostela", "description": null, "timestamp": null, "begin": null, "end": null, "altitudeMode": null, "tessellate": -1, "extrude": 0, "visibility": -1, "drawOrder": null, "icon": null }, "geometry": { "type": "Point", "coordinates": [ -8.5443954, 42.880688, 0.0 ] } },
{ "type": "Feature", "properties": { "Name": "Colegiata de Santa María de Sar", "description": null, "timestamp": null, "begin": null, "end": null, "altitudeMode": null, "tessellate": -1, "extrude": 0, "visibility": -1, "drawOrder": null, "icon": null }, "geometry": { "type": "Point", "coordinates": [ -8.5371273, 42.8721318, 0.0 ] } },
{ "type": "Feature", "properties": { "Name": "Iglesia de Santa María Salomé", "description": null, "timestamp": null, "begin": null, "end": null, "altitudeMode": null, "tessellate": -1, "extrude": 0, "visibility": -1, "drawOrder": null, "icon": null }, "geometry": { "type": "Point", "coordinates": [ -8.5435693, 42.8784766, 0.0 ] } },
{ "type": "Feature", "properties": { "Name": "Iglesia de San Cristóbal de Xavestre", "description": null, "timestamp": null, "begin": null, "end": null, "altitudeMode": null, "tessellate": -1, "extrude": 0, "visibility": -1, "drawOrder": null, "icon": null }, "geometry": { "type": "Point", "coordinates": [ -8.5656209, 42.9930124, 0.0 ] } },
{ "type": "Feature", "properties": { "Name": "Iglesia de Santa Mariña de Gafoi", "description": null, "timestamp": null, "begin": null, "end": null, "altitudeMode": null, "tessellate": -1, "extrude": 0, "visibility": -1, "drawOrder": null, "icon": null }, "geometry": { "type": "Point", "coordinates": [ -8.2566087, 43.02034, 0.0 ] } },
{ "type": "Feature", "properties": { "Name": "Iglesia de San Miguel de Goiás", "description": null, "timestamp": null, "begin": null, "end": null, "altitudeMode": null, "tessellate": -1, "extrude": 0, "visibility": -1, "drawOrder": null, "icon": null }, "geometry": { "type": "Point", "coordinates": [ -8.0914736, 42.6808107, 0.0 ] } },
{ "type": "Feature", "properties": { "Name": "CATEDRAL DE SAN MARTIÑO DE MONDOÑEDO", "description": null, "timestamp": null, "begin": null, "end": null, "altitudeMode": null, "tessellate": -1, "extrude": 0, "visibility": -1, "drawOrder": null, "icon": null }, "geometry": { "type": "Point", "coordinates": [ -7.3032063, 43.5610218, 0.0 ] } },
{ "type": "Feature", "properties": { "Name": "Iglesia de San Román de Retorta", "description": null, "timestamp": null, "begin": null, "end": null, "altitudeMode": null, "tessellate": -1, "extrude": 0, "visibility": -1, "drawOrder": null, "icon": null }, "geometry": { "type": "Point", "coordinates": [ -7.7374006, 42.9554807, 0.0 ] } },
{ "type": "Feature", "properties": { "Name": "Monasterio De Ferreira De Pallares", "description": null, "timestamp": null, "begin": null, "end": null, "altitudeMode": null, "tessellate": -1, "extrude": 0, "visibility": -1, "drawOrder": null, "icon": null }, "geometry": { "type": "Point", "coordinates": [ -7.6794417, 42.8809214, 0.0 ] } },
{ "type": "Feature", "properties": { "Name": "Iglesia de San Cristóbal de Novelúa", "description": null, "timestamp": null, "begin": null, "end": null, "altitudeMode": null, "tessellate": -1, "extrude": 0, "visibility": -1, "drawOrder": null, "icon": null }, "geometry": { "type": "Point", "coordinates": [ -7.7948681, 42.8281831, 0.0 ] } },
{ "type": "Feature", "properties": { "Name": "Iglesia de San Miguel de Berbetouros", "description": null, "timestamp": null, "begin": null, "end": null, "altitudeMode": null, "tessellate": -1, "extrude": 0, "visibility": -1, "drawOrder": null, "icon": null }, "geometry": { "type": "Point", "coordinates": [ -7.8044009, 42.9227437, 0.0 ] } },
{ "type": "Feature", "properties": { "Name": "Iglesia de San Miguel de Coence", "description": null, "timestamp": null, "begin": null, "end": null, "altitudeMode": null, "tessellate": -1, "extrude": 0, "visibility": -1, "drawOrder": null, "icon": null }, "geometry": { "type": "Point", "coordinates": [ -7.8970418, 42.8319149, 0.0 ] } },
{ "type": "Feature", "properties": { "Name": "Iglesia de San Pedro de Meixide", "description": null, "timestamp": null, "begin": null, "end": null, "altitudeMode": null, "tessellate": -1, "extrude": 0, "visibility": -1, "drawOrder": null, "icon": null }, "geometry": { "type": "Point", "coordinates": [ -7.9103882, 42.8829229, 0.0 ] } },
{ "type": "Feature", "properties": { "Name": "Iglesia de San Salvador de Villar de Donas", "description": null, "timestamp": null, "begin": null, "end": null, "altitudeMode": null, "tessellate": -1, "extrude": 0, "visibility": -1, "drawOrder": null, "icon": null }, "geometry": { "type": "Point", "coordinates": [ -7.8097297, 42.8925081, 0.0 ] } },
{ "type": "Feature", "properties": { "Name": "Iglesia de San Tirso de Palas de Rei", "description": null, "timestamp": null, "begin": null, "end": null, "altitudeMode": null, "tessellate": -1, "extrude": 0, "visibility": -1, "drawOrder": null, "icon": null }, "geometry": { "type": "Point", "coordinates": [ -7.8679648, 42.8724335, 0.0 ] } },
{ "type": "Feature", "properties": { "Name": "Iglesia de Santa Mariña de Fontecuberta", "description": null, "timestamp": null, "begin": null, "end": null, "altitudeMode": null, "tessellate": -1, "extrude": 0, "visibility": -1, "drawOrder": null, "icon": null }, "geometry": { "type": "Point", "coordinates": [ -7.8426866, 42.8918775, 0.0 ] } },
{ "type": "Feature", "properties": { "Name": "Monasterio de Santa María de Ferreira de Pantón", "description": null, "timestamp": null, "begin": null, "end": null, "altitudeMode": null, "tessellate": -1, "extrude": 0, "visibility": -1, "drawOrder": null, "icon": null }, "geometry": { "type": "Point", "coordinates": [ -7.6198722, 42.5085576, 0.0 ] } },
{ "type": "Feature", "properties": { "Name": "Iglesia de San Fiz de Cangas", "description": null, "timestamp": null, "begin": null, "end": null, "altitudeMode": null, "tessellate": -1, "extrude": 0, "visibility": -1, "drawOrder": null, "icon": null }, "geometry": { "type": "Point", "coordinates": [ -7.6409311, 42.4865656, 0.0 ] } },
{ "type": "Feature", "properties": { "Name": "Iglesia románica de San Miguel de Eiré", "description": null, "timestamp": null, "begin": null, "end": null, "altitudeMode": null, "tessellate": -1, "extrude": 0, "visibility": -1, "drawOrder": null, "icon": null }, "geometry": { "type": "Point", "coordinates": [ -7.647861, 42.5182595, 0.0 ] } },
{ "type": "Feature", "properties": { "Name": "Iglesia de San Vicenzo de Pombeiro", "description": null, "timestamp": null, "begin": null, "end": null, "altitudeMode": null, "tessellate": -1, "extrude": 0, "visibility": -1, "drawOrder": null, "icon": null }, "geometry": { "type": "Point", "coordinates": [ -7.7030712, 42.4480987, 0.0 ] } },
{ "type": "Feature", "properties": { "Name": "Iglesia de Santiago de Barbadelo", "description": null, "timestamp": null, "begin": null, "end": null, "altitudeMode": null, "tessellate": -1, "extrude": 0, "visibility": -1, "drawOrder": null, "icon": null }, "geometry": { "type": "Point", "coordinates": [ -7.4503861, 42.7652054, 0.0 ] } },
{ "type": "Feature", "properties": { "Name": "Iglesia de San Salvador de Vilar de Sarria", "description": null, "timestamp": null, "begin": null, "end": null, "altitudeMode": null, "tessellate": -1, "extrude": 0, "visibility": -1, "drawOrder": null, "icon": null }, "geometry": { "type": "Point", "coordinates": [ -7.4037264, 42.7817213, 0.0 ] } },
{ "type": "Feature", "properties": { "Name": "Igrexa de Santa María de Albán", "description": null, "timestamp": null, "begin": null, "end": null, "altitudeMode": null, "tessellate": -1, "extrude": 0, "visibility": -1, "drawOrder": null, "icon": null }, "geometry": { "type": "Point", "coordinates": [ -7.439221, 42.7559557, 0.0 ] } },
{ "type": "Feature", "properties": { "Name": "Iglesia de San Pedro Fiz de Reimóndez", "description": null, "timestamp": null, "begin": null, "end": null, "altitudeMode": null, "tessellate": -1, "extrude": 0, "visibility": -1, "drawOrder": null, "icon": null }, "geometry": { "type": "Point", "coordinates": [ -7.424078, 42.7546104, 0.0 ] } },
{ "type": "Feature", "properties": { "Name": "Iglesia de San Esteban de Reiriz", "description": null, "timestamp": null, "begin": null, "end": null, "altitudeMode": null, "tessellate": -1, "extrude": 0, "visibility": -1, "drawOrder": null, "icon": null }, "geometry": { "type": "Point", "coordinates": [ -7.3641819, 42.7488572, 0.0 ] } },
{ "type": "Feature", "properties": { "Name": "Iglesia de San Miguel de Biville", "description": null, "timestamp": null, "begin": null, "end": null, "altitudeMode": null, "tessellate": -1, "extrude": 0, "visibility": -1, "drawOrder": null, "icon": null }, "geometry": { "type": "Point", "coordinates": [ -7.5027399, 42.7744037, 0.0 ] } },
{ "type": "Feature", "properties": { "Name": "Iglesia de Santa María de Belante", "description": null, "timestamp": null, "begin": null, "end": null, "altitudeMode": null, "tessellate": -1, "extrude": 0, "visibility": -1, "drawOrder": null, "icon": null }, "geometry": { "type": "Point", "coordinates": [ -7.4947027, 42.7765336, 0.0 ] } },
{ "type": "Feature", "properties": { "Name": "Monasterio de San Julián y Santa Basilisa de Samos", "description": null, "timestamp": null, "begin": null, "end": null, "altitudeMode": null, "tessellate": -1, "extrude": 0, "visibility": -1, "drawOrder": null, "icon": null }, "geometry": { "type": "Point", "coordinates": [ -7.3257235, 42.7325005, 0.0 ] } },
{ "type": "Feature", "properties": { "Name": "Iglesia de San Paio de Diomondi", "description": null, "timestamp": null, "begin": null, "end": null, "altitudeMode": null, "tessellate": -1, "extrude": 0, "visibility": -1, "drawOrder": null, "icon": null }, "geometry": { "type": "Point", "coordinates": [ -7.7122154, 42.5944245, 0.0 ] } },
{ "type": "Feature", "properties": { "Name": "Iglesia de Santa María de Taboada dos Freires", "description": null, "timestamp": null, "begin": null, "end": null, "altitudeMode": null, "tessellate": -1, "extrude": 0, "visibility": -1, "drawOrder": null, "icon": null }, "geometry": { "type": "Point", "coordinates": [ -7.8206825, 42.698307, 0.0 ] } },
{ "type": "Feature", "properties": { "Name": "Iglesia de San Martiño de Loiro", "description": null, "timestamp": null, "begin": null, "end": null, "altitudeMode": null, "tessellate": -1, "extrude": 0, "visibility": -1, "drawOrder": null, "icon": null }, "geometry": { "type": "Point", "coordinates": [ -7.9066703, 42.2676939, 0.0 ] } },
{ "type": "Feature", "properties": { "Name": "Iglesia de San Salvador dos Pazos de Arenteiro", "description": null, "timestamp": null, "begin": null, "end": null, "altitudeMode": null, "tessellate": -1, "extrude": 0, "visibility": -1, "drawOrder": null, "icon": null }, "geometry": { "type": "Point", "coordinates": [ -8.1452547, 42.3985169, 0.0 ] } },
{ "type": "Feature", "properties": { "Name": "Iglesia de San Martín de Cameixa", "description": null, "timestamp": null, "begin": null, "end": null, "altitudeMode": null, "tessellate": -1, "extrude": 0, "visibility": -1, "drawOrder": null, "icon": null }, "geometry": { "type": "Point", "coordinates": [ -8.1599943, 42.4249432, 0.0 ] } },
{ "type": "Feature", "properties": { "Name": "Iglesia de San Julián de Astureses", "description": null, "timestamp": null, "begin": null, "end": null, "altitudeMode": null, "tessellate": -1, "extrude": 0, "visibility": -1, "drawOrder": null, "icon": null }, "geometry": { "type": "Point", "coordinates": [ -8.1121323, 42.4457557, 0.0 ] } },
{ "type": "Feature", "properties": { "Name": "Colegiata de Santa María la Real", "description": null, "timestamp": null, "begin": null, "end": null, "altitudeMode": null, "tessellate": -1, "extrude": 0, "visibility": -1, "drawOrder": null, "icon": null }, "geometry": { "type": "Point", "coordinates": [ -7.735015, 42.2043161, 0.0 ] } },
{ "type": "Feature", "properties": { "Name": "Iglesia de San Salvador de Escuadro", "description": null, "timestamp": null, "begin": null, "end": null, "altitudeMode": null, "tessellate": -1, "extrude": 0, "visibility": -1, "drawOrder": null, "icon": null }, "geometry": { "type": "Point", "coordinates": [ -8.2994859, 42.6897601, 0.0 ] } },
{ "type": "Feature", "properties": { "Name": "Iglesia de Santo Tomé de Maside Vello", "description": null, "timestamp": null, "begin": null, "end": null, "altitudeMode": null, "tessellate": -1, "extrude": 0, "visibility": -1, "drawOrder": null, "icon": null }, "geometry": { "type": "Point", "coordinates": [ -8.0142209, 42.4110519, 0.0 ] } },
{ "type": "Feature", "properties": { "Name": "Monasterio de Santa Cristina de Ribas de Sil - RIBEIRA SACRA", "description": null, "timestamp": null, "begin": null, "end": null, "altitudeMode": null, "tessellate": -1, "extrude": 0, "visibility": -1, "drawOrder": null, "icon": null }, "geometry": { "type": "Point", "coordinates": [ -7.5883085, 42.3959268, 0.0 ] } },
{ "type": "Feature", "properties": { "Name": "Iglesia de San Pedro de Mosteiro", "description": null, "timestamp": null, "begin": null, "end": null, "altitudeMode": null, "tessellate": -1, "extrude": 0, "visibility": -1, "drawOrder": null, "icon": null }, "geometry": { "type": "Point", "coordinates": [ -8.0300266, 42.1680585, 0.0 ] } },
{ "type": "Feature", "properties": { "Name": "Iglesia de San Esteban de Oca", "description": null, "timestamp": null, "begin": null, "end": null, "altitudeMode": null, "tessellate": -1, "extrude": 0, "visibility": -1, "drawOrder": null, "icon": null }, "geometry": { "type": "Point", "coordinates": [ -8.3801763, 42.7500837, 0.0 ] } },
{ "type": "Feature", "properties": { "Name": "Iglesia de San Xurxo de Codeseda", "description": null, "timestamp": null, "begin": null, "end": null, "altitudeMode": null, "tessellate": -1, "extrude": 0, "visibility": -1, "drawOrder": null, "icon": null }, "geometry": { "type": "Point", "coordinates": [ -8.4374609, 42.6184539, 0.0 ] } },
{ "type": "Feature", "properties": { "Name": "Iglesia de San Martiño de Riobó", "description": null, "timestamp": null, "begin": null, "end": null, "altitudeMode": null, "tessellate": -1, "extrude": 0, "visibility": -1, "drawOrder": null, "icon": null }, "geometry": { "type": "Point", "coordinates": [ -8.403491, 42.7348934, 0.0 ] } },
{ "type": "Feature", "properties": { "Name": "Iglesia de San Pedro de Ancorados", "description": null, "timestamp": null, "begin": null, "end": null, "altitudeMode": null, "tessellate": -1, "extrude": 0, "visibility": -1, "drawOrder": null, "icon": null }, "geometry": { "type": "Point", "coordinates": [ -8.4145454, 42.7151395, 0.0 ] } },
{ "type": "Feature", "properties": { "Name": "Iglesia de Santa María de Loimil", "description": null, "timestamp": null, "begin": null, "end": null, "altitudeMode": null, "tessellate": -1, "extrude": 0, "visibility": -1, "drawOrder": null, "icon": null }, "geometry": { "type": "Point", "coordinates": [ -8.3652937, 42.7478393, 0.0 ] } },
{ "type": "Feature", "properties": { "Name": "Iglesia de Santiago de Tabeirós", "description": null, "timestamp": null, "begin": null, "end": null, "altitudeMode": null, "tessellate": -1, "extrude": 0, "visibility": -1, "drawOrder": null, "icon": null }, "geometry": { "type": "Point", "coordinates": [ -8.4625568, 42.6628695, 0.0 ] } },
{ "type": "Feature", "properties": { "Name": "Iglesia de San Martín de Ramil", "description": null, "timestamp": null, "begin": null, "end": null, "altitudeMode": null, "tessellate": -1, "extrude": 0, "visibility": -1, "drawOrder": null, "icon": null }, "geometry": { "type": "Point", "coordinates": [ -7.977503, 42.8423294, 0.0 ] } },
{ "type": "Feature", "properties": { "Name": "Iglesia de San Pedro de Ferreiroa", "description": null, "timestamp": null, "begin": null, "end": null, "altitudeMode": null, "tessellate": -1, "extrude": 0, "visibility": -1, "drawOrder": null, "icon": null }, "geometry": { "type": "Point", "coordinates": [ -8.023567, 42.7462365, 0.0 ] } },
{ "type": "Feature", "properties": { "Name": "Igrexa de San Martiño de Agudelo", "description": null, "timestamp": null, "begin": null, "end": null, "altitudeMode": null, "tessellate": -1, "extrude": 0, "visibility": -1, "drawOrder": null, "icon": null }, "geometry": { "type": "Point", "coordinates": [ -8.6526126, 42.5274117, 0.0 ] } },
{ "type": "Feature", "properties": { "Name": "Iglesia de Santa María de Baiona", "description": null, "timestamp": null, "begin": null, "end": null, "altitudeMode": null, "tessellate": -1, "extrude": 0, "visibility": -1, "drawOrder": null, "icon": null }, "geometry": { "type": "Point", "coordinates": [ -8.8504771, 42.1180242, 0.0 ] } },
{ "type": "Feature", "properties": { "Name": "Iglesia de Santa María de Cela", "description": null, "timestamp": null, "begin": null, "end": null, "altitudeMode": null, "tessellate": -1, "extrude": 0, "visibility": -1, "drawOrder": null, "icon": null }, "geometry": { "type": "Point", "coordinates": [ -8.7528486, 42.3267545, 0.0 ] } },
{ "type": "Feature", "properties": { "Name": "Iglesia de San Miguel de Campo Lameiro", "description": null, "timestamp": null, "begin": null, "end": null, "altitudeMode": null, "tessellate": -1, "extrude": 0, "visibility": -1, "drawOrder": null, "icon": null }, "geometry": { "type": "Point", "coordinates": [ -8.5428584, 42.5371004, 0.0 ] } },
{ "type": "Feature", "properties": { "Name": "Ruínas da igrexa románica de Casteláns", "description": null, "timestamp": null, "begin": null, "end": null, "altitudeMode": null, "tessellate": -1, "extrude": 0, "visibility": -1, "drawOrder": null, "icon": null }, "geometry": { "type": "Point", "coordinates": [ -8.3933381, 42.235339, 0.0 ] } },
{ "type": "Feature", "properties": { "Name": "Monasterio de San Pedro de Vilanova de Dozón", "description": null, "timestamp": null, "begin": null, "end": null, "altitudeMode": null, "tessellate": -1, "extrude": 0, "visibility": -1, "drawOrder": null, "icon": null }, "geometry": { "type": "Point", "coordinates": [ -8.0225915, 42.5770836, 0.0 ] } },
{ "type": "Feature", "properties": { "Name": "Iglesia de San Martín de Lalín de Arriba", "description": null, "timestamp": null, "begin": null, "end": null, "altitudeMode": null, "tessellate": -1, "extrude": 0, "visibility": -1, "drawOrder": null, "icon": null }, "geometry": { "type": "Point", "coordinates": [ -8.1073844, 42.6611537, 0.0 ] } },
{ "type": "Feature", "properties": { "Name": "Mosteiro de Santa Maria de Aciveiro", "description": null, "timestamp": null, "begin": null, "end": null, "altitudeMode": null, "tessellate": -1, "extrude": 0, "visibility": -1, "drawOrder": null, "icon": null }, "geometry": { "type": "Point", "coordinates": [ -8.3015532, 42.6178815, 0.0 ] } },
{ "type": "Feature", "properties": { "Name": "Iglesia de San Cristóbal de Camposancos", "description": null, "timestamp": null, "begin": null, "end": null, "altitudeMode": null, "tessellate": -1, "extrude": 0, "visibility": -1, "drawOrder": null, "icon": null }, "geometry": { "type": "Point", "coordinates": [ -8.1435159, 42.7548349, 0.0 ] } },
{ "type": "Feature", "properties": { "Name": "Iglesia de San Pedro de Alperiz", "description": null, "timestamp": null, "begin": null, "end": null, "altitudeMode": null, "tessellate": -1, "extrude": 0, "visibility": -1, "drawOrder": null, "icon": null }, "geometry": { "type": "Point", "coordinates": [ -8.030687, 42.7100359, 0.0 ] } },
{ "type": "Feature", "properties": { "Name": "Iglesia de San Juan de Palmou", "description": null, "timestamp": null, "begin": null, "end": null, "altitudeMode": null, "tessellate": -1, "extrude": 0, "visibility": -1, "drawOrder": null, "icon": null }, "geometry": { "type": "Point", "coordinates": [ -8.1198138, 42.7305272, 0.0 ] } },
{ "type": "Feature", "properties": { "Name": "Iglesia de San Juan de Palmou", "description": null, "timestamp": null, "begin": null, "end": null, "altitudeMode": null, "tessellate": -1, "extrude": 0, "visibility": -1, "drawOrder": null, "icon": null }, "geometry": { "type": "Point", "coordinates": [ -8.1198138, 42.7305272, 0.0 ] } },
{ "type": "Feature", "properties": { "Name": "Iglesia de Santa María de Bermés", "description": null, "timestamp": null, "begin": null, "end": null, "altitudeMode": null, "tessellate": -1, "extrude": 0, "visibility": -1, "drawOrder": null, "icon": null }, "geometry": { "type": "Point", "coordinates": [ -8.1357163, 42.7194439, 0.0 ] } },
{ "type": "Feature", "properties": { "Name": "Iglesia de San Tomás de Piñeiro", "description": null, "timestamp": null, "begin": null, "end": null, "altitudeMode": null, "tessellate": -1, "extrude": 0, "visibility": -1, "drawOrder": null, "icon": null }, "geometry": { "type": "Point", "coordinates": [ -8.7193065, 42.3550024, 0.0 ] } },
{ "type": "Feature", "properties": { "Name": "Monasterio de Santa María de Armenteira", "description": null, "timestamp": null, "begin": null, "end": null, "altitudeMode": null, "tessellate": -1, "extrude": 0, "visibility": -1, "drawOrder": null, "icon": null }, "geometry": { "type": "Point", "coordinates": [ -8.7419179, 42.4633092, 0.0 ] } },
{ "type": "Feature", "properties": { "Name": "Iglesia de San Vicente de Nogueira", "description": null, "timestamp": null, "begin": null, "end": null, "altitudeMode": null, "tessellate": -1, "extrude": 0, "visibility": -1, "drawOrder": null, "icon": null }, "geometry": { "type": "Point", "coordinates": [ -8.7184181, 42.5153383, 0.0 ] } },
{ "type": "Feature", "properties": { "Name": "Iglesia de San Martiño de Moaña", "description": null, "timestamp": null, "begin": null, "end": null, "altitudeMode": null, "tessellate": -1, "extrude": 0, "visibility": -1, "drawOrder": null, "icon": null }, "geometry": { "type": "Point", "coordinates": [ -8.7489559, 42.2853697, 0.0 ] } },
{ "type": "Feature", "properties": { "Name": "Igrexa de San Martiño de Gargantáns", "description": null, "timestamp": null, "begin": null, "end": null, "altitudeMode": null, "tessellate": -1, "extrude": 0, "visibility": -1, "drawOrder": null, "icon": null }, "geometry": { "type": "Point", "coordinates": [ -8.587993, 42.5666216, 0.0 ] } },
{ "type": "Feature", "properties": { "Name": "Igrexa de San Pedro de Rebón", "description": null, "timestamp": null, "begin": null, "end": null, "altitudeMode": null, "tessellate": -1, "extrude": 0, "visibility": -1, "drawOrder": null, "icon": null }, "geometry": { "type": "Point", "coordinates": [ -8.6038403, 42.5553944, 0.0 ] } },
{ "type": "Feature", "properties": { "Name": "Iglesia de San Salvador de Louredo", "description": null, "timestamp": null, "begin": null, "end": null, "altitudeMode": null, "tessellate": -1, "extrude": 0, "visibility": -1, "drawOrder": null, "icon": null }, "geometry": { "type": "Point", "coordinates": [ -8.5958824, 42.2187743, 0.0 ] } },
{ "type": "Feature", "properties": { "Name": "Igrexa de Santiago de Parada\n", "description": "Nigrán", "timestamp": null, "begin": null, "end": null, "altitudeMode": null, "tessellate": -1, "extrude": 0, "visibility": -1, "drawOrder": null, "icon": null }, "geometry": { "type": "Point", "coordinates": [ -8.7779537, 42.1301271, 0.0 ] } },
{ "type": "Feature", "properties": { "Name": "Iglesia de San Salvador de Budiño", "description": null, "timestamp": null, "begin": null, "end": null, "altitudeMode": null, "tessellate": -1, "extrude": 0, "visibility": -1, "drawOrder": null, "icon": null }, "geometry": { "type": "Point", "coordinates": [ -8.5994511, 42.1035727, 0.0 ] } },
{ "type": "Feature", "properties": { "Name": "Iglesia de San Salvador de Padróns", "description": null, "timestamp": null, "begin": null, "end": null, "altitudeMode": null, "tessellate": -1, "extrude": 0, "visibility": -1, "drawOrder": null, "icon": null }, "geometry": { "type": "Point", "coordinates": [ -8.5324676, 42.2259275, 0.0 ] } },
{ "type": "Feature", "properties": { "Name": "Iglesia de San Julián de Romai", "description": null, "timestamp": null, "begin": null, "end": null, "altitudeMode": null, "tessellate": -1, "extrude": 0, "visibility": -1, "drawOrder": null, "icon": null }, "geometry": { "type": "Point", "coordinates": [ -8.6831827, 42.5505995, 0.0 ] } },
{ "type": "Feature", "properties": { "Name": "Iglesia de Santa Marina de Pescoso", "description": null, "timestamp": null, "begin": null, "end": null, "altitudeMode": null, "tessellate": -1, "extrude": 0, "visibility": -1, "drawOrder": null, "icon": null }, "geometry": { "type": "Point", "coordinates": [ -7.9400443, 42.6915017, 0.0 ] } },
{ "type": "Feature", "properties": { "Name": "Iglesia de San Juan de Camba", "description": null, "timestamp": null, "begin": null, "end": null, "altitudeMode": null, "tessellate": -1, "extrude": 0, "visibility": -1, "drawOrder": null, "icon": null }, "geometry": { "type": "Point", "coordinates": [ -7.9121228, 42.6702995, 0.0 ] } },
{ "type": "Feature", "properties": { "Name": "Iglesia de San Martín de Dornelas", "description": null, "timestamp": null, "begin": null, "end": null, "altitudeMode": null, "tessellate": -1, "extrude": 0, "visibility": -1, "drawOrder": null, "icon": null }, "geometry": { "type": "Point", "coordinates": [ -8.3383615, 42.7564512, 0.0 ] } },
{ "type": "Feature", "properties": { "Name": "Iglesia de San Pedro de Ansemil", "description": null, "timestamp": null, "begin": null, "end": null, "altitudeMode": null, "tessellate": -1, "extrude": 0, "visibility": -1, "drawOrder": null, "icon": null }, "geometry": { "type": "Point", "coordinates": [ -8.2682488, 42.7413945, 0.0 ] } },
{ "type": "Feature", "properties": { "Name": "Iglesia de San Mamede de O Castro", "description": null, "timestamp": null, "begin": null, "end": null, "altitudeMode": null, "tessellate": -1, "extrude": 0, "visibility": -1, "drawOrder": null, "icon": null }, "geometry": { "type": "Point", "coordinates": [ -8.2476614, 42.7203255, 0.0 ] } },
{ "type": "Feature", "properties": { "Name": "Iglesia de San Martiño de Negreiros", "description": null, "timestamp": null, "begin": null, "end": null, "altitudeMode": null, "tessellate": -1, "extrude": 0, "visibility": -1, "drawOrder": null, "icon": null }, "geometry": { "type": "Point", "coordinates": [ -8.2603975, 42.7203816, 0.0 ] } },
{ "type": "Feature", "properties": { "Name": "Iglesia de San Martiño de Fiestras", "description": null, "timestamp": null, "begin": null, "end": null, "altitudeMode": null, "tessellate": -1, "extrude": 0, "visibility": -1, "drawOrder": null, "icon": null }, "geometry": { "type": "Point", "coordinates": [ -8.2745139, 42.6815695, 0.0 ] } },
{ "type": "Feature", "properties": { "Name": "Iglesia de Santa María de Tomiño", "description": null, "timestamp": null, "begin": null, "end": null, "altitudeMode": null, "tessellate": -1, "extrude": 0, "visibility": -1, "drawOrder": null, "icon": null }, "geometry": { "type": "Point", "coordinates": [ -8.7505194, 41.9867136, 0.0 ] } },
{ "type": "Feature", "properties": { "Name": "Iglesia de San Bartolomé de Rebordáns", "description": null, "timestamp": null, "begin": null, "end": null, "altitudeMode": null, "tessellate": -1, "extrude": 0, "visibility": -1, "drawOrder": null, "icon": null }, "geometry": { "type": "Point", "coordinates": [ -8.6389875, 42.0532346, 0.0 ] } },
{ "type": "Feature", "properties": { "Name": "Iglesia de San Miguel de Pexegueiro", "description": null, "timestamp": null, "begin": null, "end": null, "altitudeMode": null, "tessellate": -1, "extrude": 0, "visibility": -1, "drawOrder": null, "icon": null }, "geometry": { "type": "Point", "coordinates": [ -8.6980239, 42.0416972, 0.0 ] } },
{ "type": "Feature", "properties": { "Name": "Catedral de Santa María de Tui", "description": null, "timestamp": null, "begin": null, "end": null, "altitudeMode": null, "tessellate": -1, "extrude": 0, "visibility": -1, "drawOrder": null, "icon": null }, "geometry": { "type": "Point", "coordinates": [ -8.6444508, 42.0460746, 0.0 ] } },
{ "type": "Feature", "properties": { "Name": "Iglesia de Santa Cristina de Campaña", "description": null, "timestamp": null, "begin": null, "end": null, "altitudeMode": null, "tessellate": -1, "extrude": 0, "visibility": -1, "drawOrder": null, "icon": null }, "geometry": { "type": "Point", "coordinates": [ -8.6684647, 42.7116664, 0.0 ] } },
{ "type": "Feature", "properties": { "Name": "Iglesia de San Salvador de Coruxo", "description": null, "timestamp": null, "begin": null, "end": null, "altitudeMode": null, "tessellate": -1, "extrude": 0, "visibility": -1, "drawOrder": null, "icon": null }, "geometry": { "type": "Point", "coordinates": [ -8.7767345, 42.1885564, 0.0 ] } },
{ "type": "Feature", "properties": { "Name": "Iglesia de Santa María de Castrelos", "description": null, "timestamp": null, "begin": null, "end": null, "altitudeMode": null, "tessellate": -1, "extrude": 0, "visibility": -1, "drawOrder": null, "icon": null }, "geometry": { "type": "Point", "coordinates": [ -8.7257828, 42.2105475, 0.0 ] } },
{ "type": "Feature", "properties": { "Name": "Igrexa de Santiago de Bembrive", "description": null, "timestamp": null, "begin": null, "end": null, "altitudeMode": null, "tessellate": -1, "extrude": 0, "visibility": -1, "drawOrder": null, "icon": null }, "geometry": { "type": "Point", "coordinates": [ -8.6866931, 42.2038859, 0.0 ] } },
{ "type": "Feature", "properties": { "Name": "Iglesia de San Martín Sobrán-Vilaxoán", "description": null, "timestamp": null, "begin": null, "end": null, "altitudeMode": null, "tessellate": -1, "extrude": 0, "visibility": -1, "drawOrder": null, "icon": null }, "geometry": { "type": "Point", "coordinates": [ -8.7869773, 42.5855441, 0.0 ] } },
{ "type": "Feature", "properties": { "Name": "Iglesia de San Juan de Baión", "description": null, "timestamp": null, "begin": null, "end": null, "altitudeMode": null, "tessellate": -1, "extrude": 0, "visibility": -1, "drawOrder": null, "icon": null }, "geometry": { "type": "Point", "coordinates": [ -8.7258187, 42.5616552, 0.0 ] } },
{ "type": "Feature", "properties": { "Name": "Iglesia de San Pedro da Mezquita", "description": null, "timestamp": null, "begin": null, "end": null, "altitudeMode": null, "tessellate": -1, "extrude": 0, "visibility": -1, "drawOrder": null, "icon": null }, "geometry": { "type": "Point", "coordinates": [ -7.8691202, 42.236665, 0.0 ] } },
{ "type": "Feature", "properties": { "Name": "Monasterio de San Martiño de Xubia", "description": null, "timestamp": null, "begin": null, "end": null, "altitudeMode": null, "tessellate": -1, "extrude": 0, "visibility": -1, "drawOrder": null, "icon": null }, "geometry": { "type": "Point", "coordinates": [ -8.1741552, 43.4979849, 0.0 ] } },
{ "type": "Feature", "properties": { "Name": "Centro Social E Paroquial De Areias De Vilar", "description": null, "timestamp": null, "begin": null, "end": null, "altitudeMode": null, "tessellate": -1, "extrude": 0, "visibility": -1, "drawOrder": null, "icon": null }, "geometry": { "type": "Point", "coordinates": [ -8.5536905, 41.5404272, 0.0 ] } },
{ "type": "Feature", "properties": { "Name": "Mosteiro de San Fins (Valença do Minho )", "description": null, "timestamp": null, "begin": null, "end": null, "altitudeMode": null, "tessellate": -1, "extrude": 0, "visibility": -1, "drawOrder": null, "icon": null }, "geometry": { "type": "Point", "coordinates": [ -8.5820962, 42.0314221, 0.0 ] } },
{ "type": "Feature", "properties": { "Name": "Monasterio de São João de Longos Vales", "description": null, "timestamp": null, "begin": null, "end": null, "altitudeMode": null, "tessellate": -1, "extrude": 0, "visibility": -1, "drawOrder": null, "icon": null }, "geometry": { "type": "Point", "coordinates": [ -8.4443423, 42.0511196, 0.0 ] } },
{ "type": "Feature", "properties": { "Name": "Iglesia de San Pedro de Rubiães", "description": null, "timestamp": null, "begin": null, "end": null, "altitudeMode": null, "tessellate": -1, "extrude": 0, "visibility": -1, "drawOrder": null, "icon": null }, "geometry": { "type": "Point", "coordinates": [ -8.6254716, 41.8965051, 0.0 ] } },
{ "type": "Feature", "properties": { "Name": "Mosteiro de Bravães", "description": null, "timestamp": null, "begin": null, "end": null, "altitudeMode": null, "tessellate": -1, "extrude": 0, "visibility": -1, "drawOrder": null, "icon": null }, "geometry": { "type": "Point", "coordinates": [ -8.4531164, 41.7978782, 0.0 ] } },
{ "type": "Feature", "properties": { "Name": "Iglesia de Santa María de Sendelle", "description": null, "timestamp": null, "begin": null, "end": null, "altitudeMode": null, "tessellate": -1, "extrude": 0, "visibility": -1, "drawOrder": null, "icon": null }, "geometry": { "type": "Point", "coordinates": [ -8.1544041, 42.9848637, 0.0 ] } },
{ "type": "Feature", "properties": { "Name": "Iglesia de São Romão de Arões", "description": null, "timestamp": null, "begin": null, "end": null, "altitudeMode": null, "tessellate": -1, "extrude": 0, "visibility": -1, "drawOrder": null, "icon": null }, "geometry": { "type": "Point", "coordinates": [ -8.2172314, 41.4561844, 0.0 ] } },
{ "type": "Feature", "properties": { "Name": "Iglesia de San Salvador de Fontarcada", "description": null, "timestamp": null, "begin": null, "end": null, "altitudeMode": null, "tessellate": -1, "extrude": 0, "visibility": -1, "drawOrder": null, "icon": null }, "geometry": { "type": "Point", "coordinates": [ -8.2455908, 41.5793611, 0.0 ] } },
{ "type": "Feature", "properties": { "Name": "Igreja de Arnoso (Santa Eulália)", "description": null, "timestamp": null, "begin": null, "end": null, "altitudeMode": null, "tessellate": -1, "extrude": 0, "visibility": -1, "drawOrder": null, "icon": null }, "geometry": { "type": "Point", "coordinates": [ -8.5214793, 41.4718737, 0.0 ] } },
{ "type": "Feature", "properties": { "Name": "Catedral Vieja de Coímbra", "description": null, "timestamp": null, "begin": null, "end": null, "altitudeMode": null, "tessellate": -1, "extrude": 0, "visibility": -1, "drawOrder": null, "icon": null }, "geometry": { "type": "Point", "coordinates": [ -8.4270474, 40.2087884, 0.0 ] } },
{ "type": "Feature", "properties": { "Name": "Nossa Sra do Ó Monastery", "description": null, "timestamp": null, "begin": null, "end": null, "altitudeMode": null, "tessellate": -1, "extrude": 0, "visibility": -1, "drawOrder": null, "icon": null }, "geometry": { "type": "Point", "coordinates": [ -8.5772168, 41.2104072, 0.0 ] } },
{ "type": "Feature", "properties": { "Name": "Igreja de Santa Maria de Gondar", "description": null, "timestamp": null, "begin": null, "end": null, "altitudeMode": null, "tessellate": -1, "extrude": 0, "visibility": -1, "drawOrder": null, "icon": null }, "geometry": { "type": "Point", "coordinates": [ -8.0313444, 41.2635327, 0.0 ] } },
{ "type": "Feature", "properties": { "Name": "Igreja do Salvador de Unhão", "description": null, "timestamp": null, "begin": null, "end": null, "altitudeMode": null, "tessellate": -1, "extrude": 0, "visibility": -1, "drawOrder": null, "icon": null }, "geometry": { "type": "Point", "coordinates": [ -8.2361707, 41.3121716, 0.0 ] } },
{ "type": "Feature", "properties": { "Name": "Iglesia de São Pedro de Rates", "description": null, "timestamp": null, "begin": null, "end": null, "altitudeMode": null, "tessellate": -1, "extrude": 0, "visibility": -1, "drawOrder": null, "icon": null }, "geometry": { "type": "Point", "coordinates": [ -8.6723908, 41.4232696, 0.0 ] } },
{ "type": "Feature", "properties": { "Name": "Mosteiro de Bravães", "description": null, "timestamp": null, "begin": null, "end": null, "altitudeMode": null, "tessellate": -1, "extrude": 0, "visibility": -1, "drawOrder": null, "icon": null }, "geometry": { "type": "Point", "coordinates": [ -8.4531164, 41.7978782, 0.0 ] } },
{ "type": "Feature", "properties": { "Name": "Iglesia de São João de Coucieiro", "description": null, "timestamp": null, "begin": null, "end": null, "altitudeMode": null, "tessellate": -1, "extrude": 0, "visibility": -1, "drawOrder": null, "icon": null }, "geometry": { "type": "Point", "coordinates": [ -8.3990285, 41.6780896, 0.0 ] } },
{ "type": "Feature", "properties": { "Name": "iglesia de Nuestra Señora de la Concepción", "description": null, "timestamp": null, "begin": null, "end": null, "altitudeMode": null, "tessellate": -1, "extrude": 0, "visibility": -1, "drawOrder": null, "icon": null }, "geometry": { "type": "Point", "coordinates": [ -7.9704735, 40.9203298, 0.0 ] } },
{ "type": "Feature", "properties": { "Name": "Igreja de São Martinho de Mouros", "description": null, "timestamp": null, "begin": null, "end": null, "altitudeMode": null, "tessellate": -1, "extrude": 0, "visibility": -1, "drawOrder": null, "icon": null }, "geometry": { "type": "Point", "coordinates": [ -7.8987424, 41.1018386, 0.0 ] } },
{ "type": "Feature", "properties": { "Name": "Iglesia de San Salvador de Balboa", "description": null, "timestamp": null, "begin": null, "end": null, "altitudeMode": null, "tessellate": -1, "extrude": 0, "visibility": -1, "drawOrder": null, "icon": null }, "geometry": { "type": "Point", "coordinates": [ -7.8251538, 42.7503726, 0.0 ] } },
{ "type": "Feature", "properties": { "Name": "Iglesia de San Cibrao dos Ferreiros", "description": null, "timestamp": null, "begin": null, "end": null, "altitudeMode": null, "tessellate": -1, "extrude": 0, "visibility": -1, "drawOrder": null, "icon": null }, "geometry": { "type": "Point", "coordinates": [ -7.8194024, 42.7344265, 0.0 ] } },
{ "type": "Feature", "properties": { "Name": "Iglesia de San Martiño de Couto", "description": null, "timestamp": null, "begin": null, "end": null, "altitudeMode": null, "tessellate": -1, "extrude": 0, "visibility": -1, "drawOrder": null, "icon": null }, "geometry": { "type": "Point", "coordinates": [ -7.7824512, 42.7322852, 0.0 ] } },
{ "type": "Feature", "properties": { "Name": "Iglesia de Santiago de Amoexa", "description": null, "timestamp": null, "begin": null, "end": null, "altitudeMode": null, "tessellate": -1, "extrude": 0, "visibility": -1, "drawOrder": null, "icon": null }, "geometry": { "type": "Point", "coordinates": [ -7.848978, 42.7460919, 0.0 ] } },
{ "type": "Feature", "properties": { "Name": "Iglesia de San Lorenzo de Peibás", "description": null, "timestamp": null, "begin": null, "end": null, "altitudeMode": null, "tessellate": -1, "extrude": 0, "visibility": -1, "drawOrder": null, "icon": null }, "geometry": { "type": "Point", "coordinates": [ -7.8702249, 42.7522606, 0.0 ] } },
{ "type": "Feature", "properties": { "Name": "Iglesia de Santa María de Arcos", "description": null, "timestamp": null, "begin": null, "end": null, "altitudeMode": null, "tessellate": -1, "extrude": 0, "visibility": -1, "drawOrder": null, "icon": null }, "geometry": { "type": "Point", "coordinates": [ -7.8960165, 42.7605207, 0.0 ] } },
{ "type": "Feature", "properties": { "Name": "Iglesia de San Martín de Amarante", "description": null, "timestamp": null, "begin": null, "end": null, "altitudeMode": null, "tessellate": -1, "extrude": 0, "visibility": -1, "drawOrder": null, "icon": null }, "geometry": { "type": "Point", "coordinates": [ -7.9346893, 42.7717402, 0.0 ] } },
{ "type": "Feature", "properties": { "Name": "Iglesia de San Cristóbal de Borraxeiros", "description": null, "timestamp": null, "begin": null, "end": null, "altitudeMode": null, "tessellate": -1, "extrude": 0, "visibility": -1, "drawOrder": null, "icon": null }, "geometry": { "type": "Point", "coordinates": [ -8.0057174, 42.7994915, 0.0 ] } },
{ "type": "Feature", "properties": { "Name": "Iglesia de Santa María de Novela", "description": null, "timestamp": null, "begin": null, "end": null, "altitudeMode": null, "tessellate": -1, "extrude": 0, "visibility": -1, "drawOrder": null, "icon": null }, "geometry": { "type": "Point", "coordinates": [ -8.0553317, 42.8748522, 0.0 ] } },
{ "type": "Feature", "properties": { "Name": "Iglesia de San Miguel de Esporiz", "description": null, "timestamp": null, "begin": null, "end": null, "altitudeMode": null, "tessellate": -1, "extrude": 0, "visibility": -1, "drawOrder": null, "icon": null }, "geometry": { "type": "Point", "coordinates": [ -7.8418978, 42.7971699, 0.0 ] } },
{ "type": "Feature", "properties": { "Name": "Iglesia de Santiago de Albá", "description": null, "timestamp": null, "begin": null, "end": null, "altitudeMode": null, "tessellate": -1, "extrude": 0, "visibility": -1, "drawOrder": null, "icon": null }, "geometry": { "type": "Point", "coordinates": [ -7.887705, 42.8462644, 0.0 ] } },
{ "type": "Feature", "properties": { "Name": "Iglesia de San Pedro de Vilareda", "description": null, "timestamp": null, "begin": null, "end": null, "altitudeMode": null, "tessellate": -1, "extrude": 0, "visibility": -1, "drawOrder": null, "icon": null }, "geometry": { "type": "Point", "coordinates": [ -7.8616122, 42.8493384, 0.0 ] } },
{ "type": "Feature", "properties": { "Name": "Iglesia de San Pedro de Frameán", "description": null, "timestamp": null, "begin": null, "end": null, "altitudeMode": null, "tessellate": -1, "extrude": 0, "visibility": -1, "drawOrder": null, "icon": null }, "geometry": { "type": "Point", "coordinates": [ -7.8232609, 42.7727535, 0.0 ] } },
{ "type": "Feature", "properties": { "Name": "Iglesia de Santa Mariña de Sucastro", "description": null, "timestamp": null, "begin": null, "end": null, "altitudeMode": null, "tessellate": -1, "extrude": 0, "visibility": -1, "drawOrder": null, "icon": null }, "geometry": { "type": "Point", "coordinates": [ -7.8127054, 42.7634423, 0.0 ] } },
{ "type": "Feature", "properties": { "Name": "Iglesia de Santa María de Piñeira", "description": null, "timestamp": null, "begin": null, "end": null, "altitudeMode": null, "tessellate": -1, "extrude": 0, "visibility": -1, "drawOrder": null, "icon": null }, "geometry": { "type": "Point", "coordinates": [ -7.7984418, 42.6823577, 0.0 ] } },
{ "type": "Feature", "properties": { "Name": "Iglesia de San Miguel do Monte", "description": null, "timestamp": null, "begin": null, "end": null, "altitudeMode": null, "tessellate": -1, "extrude": 0, "visibility": -1, "drawOrder": null, "icon": null }, "geometry": { "type": "Point", "coordinates": [ -7.8733649, 42.6681759, 0.0 ] } },
{ "type": "Feature", "properties": { "Name": "Iglesia de San Juan de Bouzoa", "description": null, "timestamp": null, "begin": null, "end": null, "altitudeMode": null, "tessellate": -1, "extrude": 0, "visibility": -1, "drawOrder": null, "icon": null }, "geometry": { "type": "Point", "coordinates": [ -7.8567909, 42.6973523, 0.0 ] } },
{ "type": "Feature", "properties": { "Name": "Iglesia de San Vicente de Argozón", "description": null, "timestamp": null, "begin": null, "end": null, "altitudeMode": null, "tessellate": -1, "extrude": 0, "visibility": -1, "drawOrder": null, "icon": null }, "geometry": { "type": "Point", "coordinates": [ -7.8702268, 42.6603834, 0.0 ] } },
{ "type": "Feature", "properties": { "Name": "Iglesia de San Cristóbal de Mouricios", "description": null, "timestamp": null, "begin": null, "end": null, "altitudeMode": null, "tessellate": -1, "extrude": 0, "visibility": -1, "drawOrder": null, "icon": null }, "geometry": { "type": "Point", "coordinates": [ -7.8413253, 42.6330686, 0.0 ] } },
{ "type": "Feature", "properties": { "Name": "Iglesia de San Cristobal de Fornas", "description": null, "timestamp": null, "begin": null, "end": null, "altitudeMode": null, "tessellate": -1, "extrude": 0, "visibility": -1, "drawOrder": null, "icon": null }, "geometry": { "type": "Point", "coordinates": [ -7.775896, 42.6247685, 0.0 ] } },
{ "type": "Feature", "properties": { "Name": "Monasterio de San Salvador de Asma", "description": null, "timestamp": null, "begin": null, "end": null, "altitudeMode": null, "tessellate": -1, "extrude": 0, "visibility": -1, "drawOrder": null, "icon": null }, "geometry": { "type": "Point", "coordinates": [ -7.7632176, 42.6015305, 0.0 ] } },
{ "type": "Feature", "properties": { "Name": "Iglesia de Santa María de Camporramiro", "description": null, "timestamp": null, "begin": null, "end": null, "altitudeMode": null, "tessellate": -1, "extrude": 0, "visibility": -1, "drawOrder": null, "icon": null }, "geometry": { "type": "Point", "coordinates": [ -7.749638, 42.592012, 0.0 ] } },
{ "type": "Feature", "properties": { "Name": "Iglesia de Santa María de Marrube", "description": null, "timestamp": null, "begin": null, "end": null, "altitudeMode": null, "tessellate": -1, "extrude": 0, "visibility": -1, "drawOrder": null, "icon": null }, "geometry": { "type": "Point", "coordinates": [ -7.6587978, 42.5926503, 0.0 ] } },
{ "type": "Feature", "properties": { "Name": "Iglesia de Santa María de Proendos", "description": null, "timestamp": null, "begin": null, "end": null, "altitudeMode": null, "tessellate": -1, "extrude": 0, "visibility": -1, "drawOrder": null, "icon": null }, "geometry": { "type": "Point", "coordinates": [ -7.5834208, 42.4516575, 0.0 ] } },
{ "type": "Feature", "properties": { "Name": "Iglesia de San Vicente de Pinol", "description": null, "timestamp": null, "begin": null, "end": null, "altitudeMode": null, "tessellate": -1, "extrude": 0, "visibility": -1, "drawOrder": null, "icon": null }, "geometry": { "type": "Point", "coordinates": [ -7.5495557, 42.4060017, 0.0 ] } },
{ "type": "Feature", "properties": { "Name": "San Paio de Abeleda", "description": null, "timestamp": null, "begin": null, "end": null, "altitudeMode": null, "tessellate": -1, "extrude": 0, "visibility": -1, "drawOrder": null, "icon": null }, "geometry": { "type": "Point", "coordinates": [ -7.4484778, 42.3893557, 0.0 ] } },
{ "type": "Feature", "properties": { "Name": "Iglesia de San Salvador de Sobrado", "description": null, "timestamp": null, "begin": null, "end": null, "altitudeMode": null, "tessellate": -1, "extrude": 0, "visibility": -1, "drawOrder": null, "icon": null }, "geometry": { "type": "Point", "coordinates": [ -7.2381176, 42.31648, 0.0 ] } },
{ "type": "Feature", "properties": { "Name": "Pazo de San Pedro de Grixoa Viana do Bolo", "description": null, "timestamp": null, "begin": null, "end": null, "altitudeMode": null, "tessellate": -1, "extrude": 0, "visibility": -1, "drawOrder": null, "icon": null }, "geometry": { "type": "Point", "coordinates": [ -7.1625795, 42.2135967, 0.0 ] } },
{ "type": "Feature", "properties": { "Name": "Iglesia de San Salvador de Vilaza", "description": null, "timestamp": null, "begin": null, "end": null, "altitudeMode": null, "tessellate": -1, "extrude": 0, "visibility": -1, "drawOrder": null, "icon": null }, "geometry": { "type": "Point", "coordinates": [ -7.4889293, 41.9313663, 0.0 ] } },
{ "type": "Feature", "properties": { "Name": "Igrexa de Santa María de Zos", "description": null, "timestamp": null, "begin": null, "end": null, "altitudeMode": null, "tessellate": -1, "extrude": 0, "visibility": -1, "drawOrder": null, "icon": null }, "geometry": { "type": "Point", "coordinates": [ -7.6615178, 42.0406325, 0.0 ] } },
{ "type": "Feature", "properties": { "Name": "Iglesia de San Martiño de Porqueira", "description": null, "timestamp": null, "begin": null, "end": null, "altitudeMode": null, "tessellate": -1, "extrude": 0, "visibility": -1, "drawOrder": null, "icon": null }, "geometry": { "type": "Point", "coordinates": [ -7.8344163, 42.0170812, 0.0 ] } },
{ "type": "Feature", "properties": { "Name": "Iglesia de San Pedro de Boado", "description": null, "timestamp": null, "begin": null, "end": null, "altitudeMode": null, "tessellate": -1, "extrude": 0, "visibility": -1, "drawOrder": null, "icon": null }, "geometry": { "type": "Point", "coordinates": [ -7.6828669, 42.0680491, 0.0 ] } },
{ "type": "Feature", "properties": { "Name": "Iglesia de San Tomé de Morgade", "description": null, "timestamp": null, "begin": null, "end": null, "altitudeMode": null, "tessellate": -1, "extrude": 0, "visibility": -1, "drawOrder": null, "icon": null }, "geometry": { "type": "Point", "coordinates": [ -7.6972693, 42.0773003, 0.0 ] } },
{ "type": "Feature", "properties": { "Name": "Iglesia de Santa María de Codosedo", "description": null, "timestamp": null, "begin": null, "end": null, "altitudeMode": null, "tessellate": -1, "extrude": 0, "visibility": -1, "drawOrder": null, "icon": null }, "geometry": { "type": "Point", "coordinates": [ -7.600447, 42.1406917, 0.0 ] } },
{ "type": "Feature", "properties": { "Name": "Iglesia de San Andrés de Guillamil", "description": null, "timestamp": null, "begin": null, "end": null, "altitudeMode": null, "tessellate": -1, "extrude": 0, "visibility": -1, "drawOrder": null, "icon": null }, "geometry": { "type": "Point", "coordinates": [ -7.8343056, 42.1235427, 0.0 ] } },
{ "type": "Feature", "properties": { "Name": "Iglesia de San Miguel de Melias", "description": null, "timestamp": null, "begin": null, "end": null, "altitudeMode": null, "tessellate": -1, "extrude": 0, "visibility": -1, "drawOrder": null, "icon": null }, "geometry": { "type": "Point", "coordinates": [ -7.8089076, 42.3998535, 0.0 ] } },
{ "type": "Feature", "properties": { "Name": "Iglesia de San Andrés de Castro de Beiro", "description": null, "timestamp": null, "begin": null, "end": null, "altitudeMode": null, "tessellate": -1, "extrude": 0, "visibility": -1, "drawOrder": null, "icon": null }, "geometry": { "type": "Point", "coordinates": [ -7.916724, 42.3749212, 0.0 ] } },
{ "type": "Feature", "properties": { "Name": "Iglesia de Santa Baia de Beiro", "description": null, "timestamp": null, "begin": null, "end": null, "altitudeMode": null, "tessellate": -1, "extrude": 0, "visibility": -1, "drawOrder": null, "icon": null }, "geometry": { "type": "Point", "coordinates": [ -7.9026795, 42.3837547, 0.0 ] } },
{ "type": "Feature", "properties": { "Name": "Iglesia de Santa María de Amoeiro", "description": null, "timestamp": null, "begin": null, "end": null, "altitudeMode": null, "tessellate": -1, "extrude": 0, "visibility": -1, "drawOrder": null, "icon": null }, "geometry": { "type": "Point", "coordinates": [ -7.9540767, 42.4098203, 0.0 ] } },
{ "type": "Feature", "properties": { "Name": "Iglesia de San Fagundo de Cea", "description": null, "timestamp": null, "begin": null, "end": null, "altitudeMode": null, "tessellate": -1, "extrude": 0, "visibility": -1, "drawOrder": null, "icon": null }, "geometry": { "type": "Point", "coordinates": [ -8.0091765, 42.461298, 0.0 ] } },
{ "type": "Feature", "properties": { "Name": "Ermita da Ntra. Señora de Lodairo", "description": null, "timestamp": null, "begin": null, "end": null, "altitudeMode": null, "tessellate": -1, "extrude": 0, "visibility": -1, "drawOrder": null, "icon": null }, "geometry": { "type": "Point", "coordinates": [ -8.1632277, 42.3144764, 0.0 ] } },
{ "type": "Feature", "properties": { "Name": "Iglesia de San Xiao de Muimenta", "description": null, "timestamp": null, "begin": null, "end": null, "altitudeMode": null, "tessellate": -1, "extrude": 0, "visibility": -1, "drawOrder": null, "icon": null }, "geometry": { "type": "Point", "coordinates": [ -8.1874971, 42.331305, 0.0 ] } },
{ "type": "Feature", "properties": { "Name": "Iglesia de San Andrés de Abelenda das Penas", "description": null, "timestamp": null, "begin": null, "end": null, "altitudeMode": null, "tessellate": -1, "extrude": 0, "visibility": -1, "drawOrder": null, "icon": null }, "geometry": { "type": "Point", "coordinates": [ -8.1833074, 42.3455156, 0.0 ] } },
{ "type": "Feature", "properties": { "Name": "Iglesia de Santa María de Razamonde", "description": null, "timestamp": null, "begin": null, "end": null, "altitudeMode": null, "tessellate": -1, "extrude": 0, "visibility": -1, "drawOrder": null, "icon": null }, "geometry": { "type": "Point", "coordinates": [ -8.0530049, 42.3290576, 0.0 ] } },
{ "type": "Feature", "properties": { "Name": "Iglesia de San Fiz de Navío", "description": null, "timestamp": null, "begin": null, "end": null, "altitudeMode": null, "tessellate": -1, "extrude": 0, "visibility": -1, "drawOrder": null, "icon": null }, "geometry": { "type": "Point", "coordinates": [ -8.0891229, 42.3653749, 0.0 ] } },
{ "type": "Feature", "properties": { "Name": "Iglesia de Santa María de Gomariz", "description": null, "timestamp": null, "begin": null, "end": null, "altitudeMode": null, "tessellate": -1, "extrude": 0, "visibility": -1, "drawOrder": null, "icon": null }, "geometry": { "type": "Point", "coordinates": [ -8.1171569, 42.3794083, 0.0 ] } },
{ "type": "Feature", "properties": { "Name": "Iglesia de Sta. María de Melón", "description": null, "timestamp": null, "begin": null, "end": null, "altitudeMode": null, "tessellate": -1, "extrude": 0, "visibility": -1, "drawOrder": null, "icon": null }, "geometry": { "type": "Point", "coordinates": [ -8.2161064, 42.2557391, 0.0 ] } },
{ "type": "Feature", "properties": { "Name": "Iglesia de San Vicente de Betote", "description": null, "timestamp": null, "begin": null, "end": null, "altitudeMode": null, "tessellate": -1, "extrude": 0, "visibility": -1, "drawOrder": null, "icon": null }, "geometry": { "type": "Point", "coordinates": [ -7.4094374, 42.7994338, 0.0 ] } },
{ "type": "Feature", "properties": { "Name": "Igrexa de San Xulián de Chorente", "description": null, "timestamp": null, "begin": null, "end": null, "altitudeMode": null, "tessellate": -1, "extrude": 0, "visibility": -1, "drawOrder": null, "icon": null }, "geometry": { "type": "Point", "coordinates": [ -7.4585938, 42.7217846, 0.0 ] } },
{ "type": "Feature", "properties": { "Name": "Iglesia de San Cristóbal de Cervela", "description": null, "timestamp": null, "begin": null, "end": null, "altitudeMode": null, "tessellate": -1, "extrude": 0, "visibility": -1, "drawOrder": null, "icon": null }, "geometry": { "type": "Point", "coordinates": [ -7.4807641, 42.7035987, 0.0 ] } },
{ "type": "Feature", "properties": { "Name": "Iglesia de San Julián de Santalla de Bardaos", "description": null, "timestamp": null, "begin": null, "end": null, "altitudeMode": null, "tessellate": -1, "extrude": 0, "visibility": -1, "drawOrder": null, "icon": null }, "geometry": { "type": "Point", "coordinates": [ -7.4242476, 42.6885099, 0.0 ] } },
{ "type": "Feature", "properties": { "Name": "Iglesia de San Xián de Veiga", "description": null, "timestamp": null, "begin": null, "end": null, "altitudeMode": null, "tessellate": -1, "extrude": 0, "visibility": -1, "drawOrder": null, "icon": null }, "geometry": { "type": "Point", "coordinates": [ -7.4115849, 42.5953569, 0.0 ] } },
{ "type": "Feature", "properties": { "Name": "Iglesia de San Clodio de Ribas do Sil", "description": null, "timestamp": null, "begin": null, "end": null, "altitudeMode": null, "tessellate": -1, "extrude": 0, "visibility": -1, "drawOrder": null, "icon": null }, "geometry": { "type": "Point", "coordinates": [ -7.2825441, 42.4649998, 0.0 ] } },
{ "type": "Feature", "properties": { "Name": "Iglesia de San Lorenzo de Suar", "description": null, "timestamp": null, "begin": null, "end": null, "altitudeMode": null, "tessellate": -1, "extrude": 0, "visibility": -1, "drawOrder": null, "icon": null }, "geometry": { "type": "Point", "coordinates": [ -7.5765661, 42.780177, 0.0 ] } },
{ "type": "Feature", "properties": { "Name": "Iglesia de San Miguel de Paradela", "description": null, "timestamp": null, "begin": null, "end": null, "altitudeMode": null, "tessellate": -1, "extrude": 0, "visibility": -1, "drawOrder": null, "icon": null }, "geometry": { "type": "Point", "coordinates": [ -7.5695561, 42.7675255, 0.0 ] } },
{ "type": "Feature", "properties": { "Name": "Iglesia de Santa María de Ferreiros", "description": null, "timestamp": null, "begin": null, "end": null, "altitudeMode": null, "tessellate": -1, "extrude": 0, "visibility": -1, "drawOrder": null, "icon": null }, "geometry": { "type": "Point", "coordinates": [ -7.5367049, 42.7837066, 0.0 ] } },
{ "type": "Feature", "properties": { "Name": "Iglesia de San Juan de Lodoso", "description": null, "timestamp": null, "begin": null, "end": null, "altitudeMode": null, "tessellate": -1, "extrude": 0, "visibility": -1, "drawOrder": null, "icon": null }, "geometry": { "type": "Point", "coordinates": [ -7.8177614, 42.8405325, 0.0 ] } },
{ "type": "Feature", "properties": { "Name": "Iglesia de San Martiño de Fufín", "description": null, "timestamp": null, "begin": null, "end": null, "altitudeMode": null, "tessellate": -1, "extrude": 0, "visibility": -1, "drawOrder": null, "icon": null }, "geometry": { "type": "Point", "coordinates": [ -7.8318949, 42.8330155, 0.0 ] } },
{ "type": "Feature", "properties": { "Name": "Iglesia de Santa María de Tarrío", "description": null, "timestamp": null, "begin": null, "end": null, "altitudeMode": null, "tessellate": -1, "extrude": 0, "visibility": -1, "drawOrder": null, "icon": null }, "geometry": { "type": "Point", "coordinates": [ -7.8247941, 42.8521324, 0.0 ] } },
{ "type": "Feature", "properties": { "Name": "Iglesia de San Salvador de Toirán", "description": null, "timestamp": null, "begin": null, "end": null, "altitudeMode": null, "tessellate": -1, "extrude": 0, "visibility": -1, "drawOrder": null, "icon": null }, "geometry": { "type": "Point", "coordinates": [ -7.343096, 42.892455, 0.0 ] } },
{ "type": "Feature", "properties": { "Name": "Iglesia de Santa María de Caamaño", "description": null, "timestamp": null, "begin": null, "end": null, "altitudeMode": null, "tessellate": -1, "extrude": 0, "visibility": -1, "drawOrder": null, "icon": null }, "geometry": { "type": "Point", "coordinates": [ -9.025017, 42.6556614, 0.0 ] } },
{ "type": "Feature", "properties": { "Name": "Iglesia de San Xián de Beba", "description": null, "timestamp": null, "begin": null, "end": null, "altitudeMode": null, "tessellate": -1, "extrude": 0, "visibility": -1, "drawOrder": null, "icon": null }, "geometry": { "type": "Point", "coordinates": [ -9.0029108, 42.909953, 0.0 ] } },
{ "type": "Feature", "properties": { "Name": "Iglesia de San Pedro de Benza", "description": null, "timestamp": null, "begin": null, "end": null, "altitudeMode": null, "tessellate": -1, "extrude": 0, "visibility": -1, "drawOrder": null, "icon": null }, "geometry": { "type": "Point", "coordinates": [ -8.5950692, 43.0213503, 0.0 ] } },
{ "type": "Feature", "properties": { "Name": "Iglesia de San Mamede de Ribadulla", "description": null, "timestamp": null, "begin": null, "end": null, "altitudeMode": null, "tessellate": -1, "extrude": 0, "visibility": -1, "drawOrder": null, "icon": null }, "geometry": { "type": "Point", "coordinates": [ -8.4410995, 42.7700047, 0.0 ] } },
{ "type": "Feature", "properties": { "Name": "Iglesia de San Miguel de Couselo", "description": null, "timestamp": null, "begin": null, "end": null, "altitudeMode": null, "tessellate": -1, "extrude": 0, "visibility": -1, "drawOrder": null, "icon": null }, "geometry": { "type": "Point", "coordinates": [ -8.5647475, 42.6728699, 0.0 ] } },
{ "type": "Feature", "properties": { "Name": "Iglesia de Santa María de Frades", "description": null, "timestamp": null, "begin": null, "end": null, "altitudeMode": null, "tessellate": -1, "extrude": 0, "visibility": -1, "drawOrder": null, "icon": null }, "geometry": { "type": "Point", "coordinates": [ -8.5673199, 42.7166022, 0.0 ] } },
{ "type": "Feature", "properties": { "Name": "Iglesia de San Julián da Portela", "description": null, "timestamp": null, "begin": null, "end": null, "altitudeMode": null, "tessellate": -1, "extrude": 0, "visibility": -1, "drawOrder": null, "icon": null }, "geometry": { "type": "Point", "coordinates": [ -7.0302072, 42.4354143, 0.0 ] } },
{ "type": "Feature", "properties": { "Name": "Iglesia de San Pedro de Gonte", "description": null, "timestamp": null, "begin": null, "end": null, "altitudeMode": null, "tessellate": -1, "extrude": 0, "visibility": -1, "drawOrder": null, "icon": null }, "geometry": { "type": "Point", "coordinates": [ -8.7614207, 42.9051753, 0.0 ] } },
{ "type": "Feature", "properties": { "Name": "Iglesia de San Juan de Vilanova", "description": null, "timestamp": null, "begin": null, "end": null, "altitudeMode": null, "tessellate": -1, "extrude": 0, "visibility": -1, "drawOrder": null, "icon": null }, "geometry": { "type": "Point", "coordinates": [ -8.129434, 42.6133772, 0.0 ] } },
{ "type": "Feature", "properties": { "Name": "Iglesia de San Andrés de Obre", "description": null, "timestamp": null, "begin": null, "end": null, "altitudeMode": null, "tessellate": -1, "extrude": 0, "visibility": -1, "drawOrder": null, "icon": null }, "geometry": { "type": "Point", "coordinates": [ -8.1891548, 43.2868686, 0.0 ] } },
{ "type": "Feature", "properties": { "Name": "Iglesia de Santo Tomás de Salto", "description": null, "timestamp": null, "begin": null, "end": null, "altitudeMode": null, "tessellate": -1, "extrude": 0, "visibility": -1, "drawOrder": null, "icon": null }, "geometry": { "type": "Point", "coordinates": [ -8.1964497, 43.2193023, 0.0 ] } },
{ "type": "Feature", "properties": { "Name": "Monasterio de Santa María de Mezonzo", "description": null, "timestamp": null, "begin": null, "end": null, "altitudeMode": null, "tessellate": -1, "extrude": 0, "visibility": -1, "drawOrder": null, "icon": null }, "geometry": { "type": "Point", "coordinates": [ -8.1347162, 43.0603323, 0.0 ] } },
{ "type": "Feature", "properties": { "Name": "Iglesia de San Xoán de Muro", "description": null, "timestamp": null, "begin": null, "end": null, "altitudeMode": null, "tessellate": -1, "extrude": 0, "visibility": -1, "drawOrder": null, "icon": null }, "geometry": { "type": "Point", "coordinates": [ -7.4039667, 42.8539859, 0.0 ] } },
{ "type": "Feature", "properties": { "Name": "Iglesia de San Esteban de Lousadela", "description": null, "timestamp": null, "begin": null, "end": null, "altitudeMode": null, "tessellate": -1, "extrude": 0, "visibility": -1, "drawOrder": null, "icon": null }, "geometry": { "type": "Point", "coordinates": [ -7.3994968, 42.8261126, 0.0 ] } },
{ "type": "Feature", "properties": { "Name": "Antigua Iglesia de San Mamede de Vilasouto", "description": null, "timestamp": null, "begin": null, "end": null, "altitudeMode": null, "tessellate": -1, "extrude": 0, "visibility": -1, "drawOrder": null, "icon": null }, "geometry": { "type": "Point", "coordinates": [ -7.4196403, 42.6656887, 0.0 ] } },
{ "type": "Feature", "properties": { "Name": "Iglesia de San Pedro de Ribas Altas", "description": null, "timestamp": null, "begin": null, "end": null, "altitudeMode": null, "tessellate": -1, "extrude": 0, "visibility": -1, "drawOrder": null, "icon": null }, "geometry": { "type": "Point", "coordinates": [ -7.4968231, 42.549285, 0.0 ] } },
{ "type": "Feature", "properties": { "Name": "Iglesia de Santa María de Morlán", "description": null, "timestamp": null, "begin": null, "end": null, "altitudeMode": null, "tessellate": -1, "extrude": 0, "visibility": -1, "drawOrder": null, "icon": null }, "geometry": { "type": "Point", "coordinates": [ -8.4996233, 43.0111795, 0.0 ] } },
{ "type": "Feature", "properties": { "Name": "Iglesia de San Esteban", "description": null, "timestamp": null, "begin": null, "end": null, "altitudeMode": null, "tessellate": -1, "extrude": 0, "visibility": -1, "drawOrder": null, "icon": null }, "geometry": { "type": "Point", "coordinates": [ -6.8194044, 42.5780308, 0.0 ] } },
{ "type": "Feature", "properties": { "Name": "Iglesia de San Miguel", "description": null, "timestamp": null, "begin": null, "end": null, "altitudeMode": null, "tessellate": -1, "extrude": 0, "visibility": -1, "drawOrder": null, "icon": null }, "geometry": { "type": "Point", "coordinates": [ -6.8168665, 42.5840755, 0.0 ] } },
{ "type": "Feature", "properties": { "Name": "Iglesia de Santa María de Vizbayo", "description": null, "timestamp": null, "begin": null, "end": null, "altitudeMode": null, "tessellate": -1, "extrude": 0, "visibility": -1, "drawOrder": null, "icon": null }, "geometry": { "type": "Point", "coordinates": [ -6.594454, 42.53741, 0.0 ] } },
{ "type": "Feature", "properties": { "Name": "Monasterio de San Pedro de las Dueñas", "description": null, "timestamp": null, "begin": null, "end": null, "altitudeMode": null, "tessellate": -1, "extrude": 0, "visibility": -1, "drawOrder": null, "icon": null }, "geometry": { "type": "Point", "coordinates": [ -5.0497795, 42.3312659, 0.0 ] } },
{ "type": "Feature", "properties": { "Name": "Basílica de San Isidoro", "description": null, "timestamp": null, "begin": null, "end": null, "altitudeMode": null, "tessellate": -1, "extrude": 0, "visibility": -1, "drawOrder": null, "icon": null }, "geometry": { "type": "Point", "coordinates": [ -5.570794, 42.600768, 0.0 ] } },
{ "type": "Feature", "properties": { "Name": "Santa Marta de Tera", "description": null, "timestamp": null, "begin": null, "end": null, "altitudeMode": null, "tessellate": -1, "extrude": 0, "visibility": -1, "drawOrder": null, "icon": null }, "geometry": { "type": "Point", "coordinates": [ -5.9680575, 41.9955967, 0.0 ] } },
{ "type": "Feature", "properties": { "Name": "Iglesia de San Martiño de Prado", "description": null, "timestamp": null, "begin": null, "end": null, "altitudeMode": null, "tessellate": -1, "extrude": 0, "visibility": -1, "drawOrder": null, "icon": null }, "geometry": { "type": "Point", "coordinates": [ -8.1883726, 42.681094, 0.0 ] } },
{ "type": "Feature", "properties": { "Name": "Iglesia de Santiago de Taboada", "description": null, "timestamp": null, "begin": null, "end": null, "altitudeMode": null, "tessellate": -1, "extrude": 0, "visibility": -1, "drawOrder": null, "icon": null }, "geometry": { "type": "Point", "coordinates": [ -8.2179484, 42.6868335, 0.0 ] } },
{ "type": "Feature", "properties": { "Name": "Iglesia de Santa Eulalia de Chamín", "description": null, "timestamp": null, "begin": null, "end": null, "altitudeMode": null, "tessellate": -1, "extrude": 0, "visibility": -1, "drawOrder": null, "icon": null }, "geometry": { "type": "Point", "coordinates": [ -8.5659346, 43.2935056, 0.0 ] } },
{ "type": "Feature", "properties": { "Name": "Iglesia de Santa María de Celas", "description": null, "timestamp": null, "begin": null, "end": null, "altitudeMode": null, "tessellate": -1, "extrude": 0, "visibility": -1, "drawOrder": null, "icon": null }, "geometry": { "type": "Point", "coordinates": [ -8.4072166, 43.2495101, 0.0 ] } },
{ "type": "Feature", "properties": { "Name": "Iglesia de Santa María de Verís", "description": null, "timestamp": null, "begin": null, "end": null, "altitudeMode": null, "tessellate": -1, "extrude": 0, "visibility": -1, "drawOrder": null, "icon": null }, "geometry": { "type": "Point", "coordinates": [ -8.0549961, 43.2640722, 0.0 ] } },
{ "type": "Feature", "properties": { "Name": "Iglesia de San Julián de Moraime", "description": null, "timestamp": null, "begin": null, "end": null, "altitudeMode": null, "tessellate": -1, "extrude": 0, "visibility": -1, "drawOrder": null, "icon": null }, "geometry": { "type": "Point", "coordinates": [ -9.1995776, 43.084873, 0.0 ] } },
{ "type": "Feature", "properties": { "Name": "Iglesia de San Miguel de Bacurín", "description": null, "timestamp": null, "begin": null, "end": null, "altitudeMode": null, "tessellate": -1, "extrude": 0, "visibility": -1, "drawOrder": null, "icon": null }, "geometry": { "type": "Point", "coordinates": [ -7.6887618, 42.9680335, 0.0 ] } },
{ "type": "Feature", "properties": { "Name": "Iglesia de San Vicente de Elviña", "description": null, "timestamp": null, "begin": null, "end": null, "altitudeMode": null, "tessellate": -1, "extrude": 0, "visibility": -1, "drawOrder": null, "icon": null }, "geometry": { "type": "Point", "coordinates": [ -8.4031969, 43.3342112, 0.0 ] } },
{ "type": "Feature", "properties": { "Name": "Igrexa de San Nicolás de portomarin", "description": null, "timestamp": null, "begin": null, "end": null, "altitudeMode": null, "tessellate": -1, "extrude": 0, "visibility": -1, "drawOrder": null, "icon": null }, "geometry": { "type": "Point", "coordinates": [ -7.6157767, 42.807391, 0.0 ] } },
{ "type": "Feature", "properties": { "Name": "Iglesia de San Pedro", "description": null, "timestamp": null, "begin": null, "end": null, "altitudeMode": null, "tessellate": -1, "extrude": 0, "visibility": -1, "drawOrder": null, "icon": null }, "geometry": { "type": "Point", "coordinates": [ -7.6147079, 42.8094573, 0.0 ] } },
{ "type": "Feature", "properties": { "Name": "Iglesia de Santa Comba de Trevoedo", "description": null, "timestamp": null, "begin": null, "end": null, "altitudeMode": null, "tessellate": -1, "extrude": 0, "visibility": -1, "drawOrder": null, "icon": null }, "geometry": { "type": "Point", "coordinates": [ -8.0321152, 42.3945749, 0.0 ] } },
{ "type": "Feature", "properties": { "Name": "Iglesia de Santa Cruz de Arrabaldo", "description": null, "timestamp": null, "begin": null, "end": null, "altitudeMode": null, "tessellate": -1, "extrude": 0, "visibility": -1, "drawOrder": null, "icon": null }, "geometry": { "type": "Point", "coordinates": [ -7.9981454, 42.3467734, 0.0 ] } },
{ "type": "Feature", "properties": { "Name": "Iglesia de Santa María de Feá", "description": null, "timestamp": null, "begin": null, "end": null, "altitudeMode": null, "tessellate": -1, "extrude": 0, "visibility": -1, "drawOrder": null, "icon": null }, "geometry": { "type": "Point", "coordinates": [ -7.9979694, 42.3389966, 0.0 ] } },
{ "type": "Feature", "properties": { "Name": "Iglesia de Santa María de Castrelo de Miño", "description": null, "timestamp": null, "begin": null, "end": null, "altitudeMode": null, "tessellate": -1, "extrude": 0, "visibility": -1, "drawOrder": null, "icon": null }, "geometry": { "type": "Point", "coordinates": [ -8.1150672, 42.2910019, 0.0 ] } },
{ "type": "Feature", "properties": { "Name": "Iglesia de San Martiño de Bandoxa", "description": null, "timestamp": null, "begin": null, "end": null, "altitudeMode": null, "tessellate": -1, "extrude": 0, "visibility": -1, "drawOrder": null, "icon": null }, "geometry": { "type": "Point", "coordinates": [ -8.143899, 43.2062643, 0.0 ] } },
{ "type": "Feature", "properties": { "Name": "Iglesia de San Martiño de Brabío", "description": null, "timestamp": null, "begin": null, "end": null, "altitudeMode": null, "tessellate": -1, "extrude": 0, "visibility": -1, "drawOrder": null, "icon": null }, "geometry": { "type": "Point", "coordinates": [ -8.1997189, 43.2664527, 0.0 ] } },
{ "type": "Feature", "properties": { "Name": "Iglesia de San Julián de Coirós", "description": null, "timestamp": null, "begin": null, "end": null, "altitudeMode": null, "tessellate": -1, "extrude": 0, "visibility": -1, "drawOrder": null, "icon": null }, "geometry": { "type": "Point", "coordinates": [ -8.1647338, 43.2499551, 0.0 ] } },
{ "type": "Feature", "properties": { "Name": "Iglesia de Santa María de Cruces", "description": null, "timestamp": null, "begin": null, "end": null, "altitudeMode": null, "tessellate": -1, "extrude": 0, "visibility": -1, "drawOrder": null, "icon": null }, "geometry": { "type": "Point", "coordinates": [ -8.6480528, 42.786276, 0.0 ] } },
{ "type": "Feature", "properties": { "Name": "Iglesia de Santa Eulalia da Espenuca", "description": null, "timestamp": null, "begin": null, "end": null, "altitudeMode": null, "tessellate": -1, "extrude": 0, "visibility": -1, "drawOrder": null, "icon": null }, "geometry": { "type": "Point", "coordinates": [ -8.1559662, 43.2637238, 0.0 ] } },
{ "type": "Feature", "properties": { "Name": "Iglesia de Santa Mariña do Obre", "description": null, "timestamp": null, "begin": null, "end": null, "altitudeMode": null, "tessellate": -1, "extrude": 0, "visibility": -1, "drawOrder": null, "icon": null }, "geometry": { "type": "Point", "coordinates": [ -8.8977691, 42.7821011, 0.0 ] } },
{ "type": "Feature", "properties": { "Name": "Iglesia de San Esteban de Anos", "description": null, "timestamp": null, "begin": null, "end": null, "altitudeMode": null, "tessellate": -1, "extrude": 0, "visibility": -1, "drawOrder": null, "icon": null }, "geometry": { "type": "Point", "coordinates": [ -8.9133006, 43.1682631, 0.0 ] } },
{ "type": "Feature", "properties": { "Name": "Capilla de San Cosme y San Damián de Sésamo", "description": null, "timestamp": null, "begin": null, "end": null, "altitudeMode": null, "tessellate": -1, "extrude": 0, "visibility": -1, "drawOrder": null, "icon": null }, "geometry": { "type": "Point", "coordinates": [ -8.3875861, 43.2771474, 0.0 ] } },
{ "type": "Feature", "properties": { "Name": "Iglesia de Santa Baia de Aguada", "description": null, "timestamp": null, "begin": null, "end": null, "altitudeMode": null, "tessellate": -1, "extrude": 0, "visibility": -1, "drawOrder": null, "icon": null }, "geometry": { "type": "Point", "coordinates": [ -7.8800105, 42.5200178, 0.0 ] } },
{ "type": "Feature", "properties": { "Name": "Iglesia de San Vicenzo de Ambreixo", "description": null, "timestamp": null, "begin": null, "end": null, "altitudeMode": null, "tessellate": -1, "extrude": 0, "visibility": -1, "drawOrder": null, "icon": null }, "geometry": { "type": "Point", "coordinates": [ -7.916129, 42.8945278, 0.0 ] } },
{ "type": "Feature", "properties": { "Name": "Iglesia de San Pedro de Bembibre", "description": null, "timestamp": null, "begin": null, "end": null, "altitudeMode": null, "tessellate": -1, "extrude": 0, "visibility": -1, "drawOrder": null, "icon": null }, "geometry": { "type": "Point", "coordinates": [ -7.7527474, 42.7260692, 0.0 ] } },
{ "type": "Feature", "properties": { "Name": "Iglesia de Santa María de Bermún", "description": null, "timestamp": null, "begin": null, "end": null, "altitudeMode": null, "tessellate": -1, "extrude": 0, "visibility": -1, "drawOrder": null, "icon": null }, "geometry": { "type": "Point", "coordinates": [ -7.877854, 42.5787952, 0.0 ] } },
{ "type": "Feature", "properties": { "Name": "Iglesia de Santiago de Bidouredo", "description": null, "timestamp": null, "begin": null, "end": null, "altitudeMode": null, "tessellate": -1, "extrude": 0, "visibility": -1, "drawOrder": null, "icon": null }, "geometry": { "type": "Point", "coordinates": [ -7.8555958, 42.8018407, 0.0 ] } },
{ "type": "Feature", "properties": { "Name": "Iglesia de San Salvador de Brigos", "description": null, "timestamp": null, "begin": null, "end": null, "altitudeMode": null, "tessellate": -1, "extrude": 0, "visibility": -1, "drawOrder": null, "icon": null }, "geometry": { "type": "Point", "coordinates": [ -7.7943946, 42.5972711, 0.0 ] } },
{ "type": "Feature", "properties": { "Name": "Iglesia de San Xián do Campo", "description": null, "timestamp": null, "begin": null, "end": null, "altitudeMode": null, "tessellate": -1, "extrude": 0, "visibility": -1, "drawOrder": null, "icon": null }, "geometry": { "type": "Point", "coordinates": [ -7.7728308, 42.6926019, 0.0 ] } },
{ "type": "Feature", "properties": { "Name": "Iglesia de Santa María de Camporramiro", "description": null, "timestamp": null, "begin": null, "end": null, "altitudeMode": null, "tessellate": -1, "extrude": 0, "visibility": -1, "drawOrder": null, "icon": null }, "geometry": { "type": "Point", "coordinates": [ -7.749638, 42.592012, 0.0 ] } },
{ "type": "Feature", "properties": { "Name": "Iglesia de San Mamede do Carballal", "description": null, "timestamp": null, "begin": null, "end": null, "altitudeMode": null, "tessellate": -1, "extrude": 0, "visibility": -1, "drawOrder": null, "icon": null }, "geometry": { "type": "Point", "coordinates": [ -7.8981712, 42.9153925, 0.0 ] } },
{ "type": "Feature", "properties": { "Name": "Iglesia de San Martiño de Cumbraos", "description": null, "timestamp": null, "begin": null, "end": null, "altitudeMode": null, "tessellate": -1, "extrude": 0, "visibility": -1, "drawOrder": null, "icon": null }, "geometry": { "type": "Point", "coordinates": [ -7.8351446, 42.8132921, 0.0 ] } },
{ "type": "Feature", "properties": { "Name": "Iglesia de San Juan de Friolfe", "description": null, "timestamp": null, "begin": null, "end": null, "altitudeMode": null, "tessellate": -1, "extrude": 0, "visibility": -1, "drawOrder": null, "icon": null }, "geometry": { "type": "Point", "coordinates": [ -7.5374764, 42.8107423, 0.0 ] } },
{ "type": "Feature", "properties": { "Name": "Catedral de Lugo", "description": null, "timestamp": null, "begin": null, "end": null, "altitudeMode": null, "tessellate": -1, "extrude": 0, "visibility": -1, "drawOrder": null, "icon": null }, "geometry": { "type": "Point", "coordinates": [ -7.558004, 43.0093462, 0.0 ] } },
{ "type": "Feature", "properties": { "Name": "Iglesia de San Martiño de Mariz", "description": null, "timestamp": null, "begin": null, "end": null, "altitudeMode": null, "tessellate": -1, "extrude": 0, "visibility": -1, "drawOrder": null, "icon": null }, "geometry": { "type": "Point", "coordinates": [ -7.799488, 42.6389673, 0.0 ] } },
{ "type": "Feature", "properties": { "Name": "Igrexa de San Pedro de Martul", "description": null, "timestamp": null, "begin": null, "end": null, "altitudeMode": null, "tessellate": -1, "extrude": 0, "visibility": -1, "drawOrder": null, "icon": null }, "geometry": { "type": "Point", "coordinates": [ -7.635769, 43.0843265, 0.0 ] } },
{ "type": "Feature", "properties": { "Name": "Iglesia de San Salvador de Merlán", "description": null, "timestamp": null, "begin": null, "end": null, "altitudeMode": null, "tessellate": -1, "extrude": 0, "visibility": -1, "drawOrder": null, "icon": null }, "geometry": { "type": "Point", "coordinates": [ -7.872587, 42.9425512, 0.0 ] } },
{ "type": "Feature", "properties": { "Name": "Iglesia de Santa María de Mosteiro", "description": null, "timestamp": null, "begin": null, "end": null, "altitudeMode": null, "tessellate": -1, "extrude": 0, "visibility": -1, "drawOrder": null, "icon": null }, "geometry": { "type": "Point", "coordinates": [ -7.5829792, 42.8718856, 0.0 ] } },
{ "type": "Feature", "properties": { "Name": "Iglesia de Santa María de Nogueira de Miño", "description": null, "timestamp": null, "begin": null, "end": null, "altitudeMode": null, "tessellate": -1, "extrude": 0, "visibility": -1, "drawOrder": null, "icon": null }, "geometry": { "type": "Point", "coordinates": [ -7.7138586, 42.5562553, 0.0 ] } },
{ "type": "Feature", "properties": { "Name": "Iglesia de San Miguel de Oleiros", "description": null, "timestamp": null, "begin": null, "end": null, "altitudeMode": null, "tessellate": -1, "extrude": 0, "visibility": -1, "drawOrder": null, "icon": null }, "geometry": { "type": "Point", "coordinates": [ -7.7375402, 42.4747512, 0.0 ] } },
{ "type": "Feature", "properties": { "Name": "Capilla de San Lorenzo de Pedraza", "description": null, "timestamp": null, "begin": null, "end": null, "altitudeMode": null, "tessellate": -1, "extrude": 0, "visibility": -1, "drawOrder": null, "icon": null }, "geometry": { "type": "Point", "coordinates": [ -7.8633385, 42.8133215, 0.0 ] } },
{ "type": "Feature", "properties": { "Name": "Iglesia de San Lorenzo de Peibás", "description": null, "timestamp": null, "begin": null, "end": null, "altitudeMode": null, "tessellate": -1, "extrude": 0, "visibility": -1, "drawOrder": null, "icon": null }, "geometry": { "type": "Point", "coordinates": [ -7.8702249, 42.7522606, 0.0 ] } },
{ "type": "Feature", "properties": { "Name": "Mosteirio de Santa María de Penamaior", "description": null, "timestamp": null, "begin": null, "end": null, "altitudeMode": null, "tessellate": -1, "extrude": 0, "visibility": -1, "drawOrder": null, "icon": null }, "geometry": { "type": "Point", "coordinates": [ -7.2078433, 42.8769444, 0.0 ] } },
{ "type": "Feature", "properties": { "Name": "Iglesia de Santa María de Penela", "description": null, "timestamp": null, "begin": null, "end": null, "altitudeMode": null, "tessellate": -1, "extrude": 0, "visibility": -1, "drawOrder": null, "icon": null }, "geometry": { "type": "Point", "coordinates": [ -7.4779866, 42.487229, 0.0 ] } },
{ "type": "Feature", "properties": { "Name": "Iglesia de Santiago de Pradeda", "description": null, "timestamp": null, "begin": null, "end": null, "altitudeMode": null, "tessellate": -1, "extrude": 0, "visibility": -1, "drawOrder": null, "icon": null }, "geometry": { "type": "Point", "coordinates": [ -7.8082805, 42.561251, 0.0 ] } },
{ "type": "Feature", "properties": { "Name": "Iglesia de Santiago de Requeixo", "description": null, "timestamp": null, "begin": null, "end": null, "altitudeMode": null, "tessellate": -1, "extrude": 0, "visibility": -1, "drawOrder": null, "icon": null }, "geometry": { "type": "Point", "coordinates": [ -7.8648967, 42.6129892, 0.0 ] } },
{ "type": "Feature", "properties": { "Name": "Iglesia de San Pedro Fiz de Reimóndez", "description": null, "timestamp": null, "begin": null, "end": null, "altitudeMode": null, "tessellate": -1, "extrude": 0, "visibility": -1, "drawOrder": null, "icon": null }, "geometry": { "type": "Point", "coordinates": [ -7.424078, 42.7546104, 0.0 ] } },
{ "type": "Feature", "properties": { "Name": "Iglesia de Santa Cruz de Viana", "description": null, "timestamp": null, "begin": null, "end": null, "altitudeMode": null, "tessellate": -1, "extrude": 0, "visibility": -1, "drawOrder": null, "icon": null }, "geometry": { "type": "Point", "coordinates": [ -7.8426287, 42.5790541, 0.0 ] } },
{ "type": "Feature", "properties": { "Name": "Iglesia de San Paio de Seixón", "description": null, "timestamp": null, "begin": null, "end": null, "altitudeMode": null, "tessellate": -1, "extrude": 0, "visibility": -1, "drawOrder": null, "icon": null }, "geometry": { "type": "Point", "coordinates": [ -7.8143626, 43.1155822, 0.0 ] } },
{ "type": "Feature", "properties": { "Name": "Iglesia de Santa María de Seteventos", "description": null, "timestamp": null, "begin": null, "end": null, "altitudeMode": null, "tessellate": -1, "extrude": 0, "visibility": -1, "drawOrder": null, "icon": null }, "geometry": { "type": "Point", "coordinates": [ -7.6194697, 42.5924971, 0.0 ] } },
{ "type": "Feature", "properties": { "Name": "Iglesia de Santa María de Torbeo", "description": null, "timestamp": null, "begin": null, "end": null, "altitudeMode": null, "tessellate": -1, "extrude": 0, "visibility": -1, "drawOrder": null, "icon": null }, "geometry": { "type": "Point", "coordinates": [ -7.3777445, 42.4418253, 0.0 ] } },
{ "type": "Feature", "properties": { "Name": "Iglesia de San Salvador de Balboa", "description": null, "timestamp": null, "begin": null, "end": null, "altitudeMode": null, "tessellate": -1, "extrude": 0, "visibility": -1, "drawOrder": null, "icon": null }, "geometry": { "type": "Point", "coordinates": [ -7.8251538, 42.7503726, 0.0 ] } },
{ "type": "Feature", "properties": { "Name": "Iglesia de Santa María de Vilaragunte", "description": null, "timestamp": null, "begin": null, "end": null, "altitudeMode": null, "tessellate": -1, "extrude": 0, "visibility": -1, "drawOrder": null, "icon": null }, "geometry": { "type": "Point", "coordinates": [ -7.5515444, 42.7571598, 0.0 ] } },
{ "type": "Feature", "properties": { "Name": "Iglesia de San Salvador de Vileiriz", "description": null, "timestamp": null, "begin": null, "end": null, "altitudeMode": null, "tessellate": -1, "extrude": 0, "visibility": -1, "drawOrder": null, "icon": null }, "geometry": { "type": "Point", "coordinates": [ -7.5502161, 42.8139857, 0.0 ] } },
{ "type": "Feature", "properties": { "Name": "Iglesia de San Pedro de Figueiredo", "description": null, "timestamp": null, "begin": null, "end": null, "altitudeMode": null, "tessellate": -1, "extrude": 0, "visibility": -1, "drawOrder": null, "icon": null }, "geometry": { "type": "Point", "coordinates": [ -7.7763813, 42.2754954, 0.0 ] } },
{ "type": "Feature", "properties": { "Name": "Iglesia de San Pedro de Garabás", "description": null, "timestamp": null, "begin": null, "end": null, "altitudeMode": null, "tessellate": -1, "extrude": 0, "visibility": -1, "drawOrder": null, "icon": null }, "geometry": { "type": "Point", "coordinates": [ -8.0166125, 42.4266044, 0.0 ] } },
{ "type": "Feature", "properties": { "Name": "Iglesia de Santa María de Mesego", "description": null, "timestamp": null, "begin": null, "end": null, "altitudeMode": null, "tessellate": -1, "extrude": 0, "visibility": -1, "drawOrder": null, "icon": null }, "geometry": { "type": "Point", "coordinates": [ -8.0891336, 42.4171106, 0.0 ] } },
{ "type": "Feature", "properties": { "Name": "Monasterio de San Pedro de Rocas", "description": null, "timestamp": null, "begin": null, "end": null, "altitudeMode": null, "tessellate": -1, "extrude": 0, "visibility": -1, "drawOrder": null, "icon": null }, "geometry": { "type": "Point", "coordinates": [ -7.7134122, 42.3418883, 0.0 ] } },
{ "type": "Feature", "properties": { "Name": "Iglesia de San Pedro de Trasalba", "description": null, "timestamp": null, "begin": null, "end": null, "altitudeMode": null, "tessellate": -1, "extrude": 0, "visibility": -1, "drawOrder": null, "icon": null }, "geometry": { "type": "Point", "coordinates": [ -7.9751157, 42.3659819, 0.0 ] } },
{ "type": "Feature", "properties": { "Name": "Iglesia de Santa María de Xuvencos", "description": null, "timestamp": null, "begin": null, "end": null, "altitudeMode": null, "tessellate": -1, "extrude": 0, "visibility": -1, "drawOrder": null, "icon": null }, "geometry": { "type": "Point", "coordinates": [ -8.1296661, 42.4404811, 0.0 ] } },
{ "type": "Feature", "properties": { "Name": "Igrexa de San Xoán de Anzo", "description": null, "timestamp": null, "begin": null, "end": null, "altitudeMode": null, "tessellate": -1, "extrude": 0, "visibility": -1, "drawOrder": null, "icon": null }, "geometry": { "type": "Point", "coordinates": [ -8.1993265, 42.7179567, 0.0 ] } },
{ "type": "Feature", "properties": { "Name": "Iglesia de San Andrés de Cesar", "description": null, "timestamp": null, "begin": null, "end": null, "altitudeMode": null, "tessellate": -1, "extrude": 0, "visibility": -1, "drawOrder": null, "icon": null }, "geometry": { "type": "Point", "coordinates": [ -8.6268974, 42.6104924, 0.0 ] } },
{ "type": "Feature", "properties": { "Name": "Iglesia de Santa Eulalia de Donas", "description": null, "timestamp": null, "begin": null, "end": null, "altitudeMode": null, "tessellate": -1, "extrude": 0, "visibility": -1, "drawOrder": null, "icon": null }, "geometry": { "type": "Point", "coordinates": [ -8.7885662, 42.0975882, 0.0 ] } },
{ "type": "Feature", "properties": { "Name": "Iglesia de San Andrés de Figueirido", "description": null, "timestamp": null, "begin": null, "end": null, "altitudeMode": null, "tessellate": -1, "extrude": 0, "visibility": -1, "drawOrder": null, "icon": null }, "geometry": { "type": "Point", "coordinates": [ -8.6296441, 42.3694634, 0.0 ] } },
{ "type": "Feature", "properties": { "Name": "Iglesia de San Pedro de Fontecarmoa", "description": null, "timestamp": null, "begin": null, "end": null, "altitudeMode": null, "tessellate": -1, "extrude": 0, "visibility": -1, "drawOrder": null, "icon": null }, "geometry": { "type": "Point", "coordinates": [ -8.7706341, 42.5850743, 0.0 ] } },
{ "type": "Feature", "properties": { "Name": "Iglesia de Santa Mariña de Fragas", "description": null, "timestamp": null, "begin": null, "end": null, "altitudeMode": null, "tessellate": -1, "extrude": 0, "visibility": -1, "drawOrder": null, "icon": null }, "geometry": { "type": "Point", "coordinates": [ -8.5577694, 42.5245467, 0.0 ] } },
{ "type": "Feature", "properties": { "Name": "Iglesia de Santo Tirso de Manduas", "description": null, "timestamp": null, "begin": null, "end": null, "altitudeMode": null, "tessellate": -1, "extrude": 0, "visibility": -1, "drawOrder": null, "icon": null }, "geometry": { "type": "Point", "coordinates": [ -8.2944095, 42.7379073, 0.0 ] } },
{ "type": "Feature", "properties": { "Name": "Iglesia de San Salvador de Meis", "description": null, "timestamp": null, "begin": null, "end": null, "altitudeMode": null, "tessellate": -1, "extrude": 0, "visibility": -1, "drawOrder": null, "icon": null }, "geometry": { "type": "Point", "coordinates": [ -8.7273203, 42.4972085, 0.0 ] } },
{ "type": "Feature", "properties": { "Name": "Iglesia de San Martín de Meis", "description": null, "timestamp": null, "begin": null, "end": null, "altitudeMode": null, "tessellate": -1, "extrude": 0, "visibility": -1, "drawOrder": null, "icon": null }, "geometry": { "type": "Point", "coordinates": [ -8.7506009, 42.4953398, 0.0 ] } },
{ "type": "Feature", "properties": { "Name": "Iglesia de San Miguel de Moreira", "description": null, "timestamp": null, "begin": null, "end": null, "altitudeMode": null, "tessellate": -1, "extrude": 0, "visibility": -1, "drawOrder": null, "icon": null }, "geometry": { "type": "Point", "coordinates": [ -8.4478875, 42.7164905, 0.0 ] } },
{ "type": "Feature", "properties": { "Name": "Igrexa de Santa María de Noceda", "description": null, "timestamp": null, "begin": null, "end": null, "altitudeMode": null, "tessellate": -1, "extrude": 0, "visibility": -1, "drawOrder": null, "icon": null }, "geometry": { "type": "Point", "coordinates": [ -8.1912392, 42.6993982, 0.0 ] } },
{ "type": "Feature", "properties": { "Name": "Iglesia de San Miguel de Peitieiros", "description": null, "timestamp": null, "begin": null, "end": null, "altitudeMode": null, "tessellate": -1, "extrude": 0, "visibility": -1, "drawOrder": null, "icon": null }, "geometry": { "type": "Point", "coordinates": [ -8.7370045, 42.0994377, 0.0 ] } },
{ "type": "Feature", "properties": { "Name": "Parroquia San Xoan de Poio", "description": null, "timestamp": null, "begin": null, "end": null, "altitudeMode": null, "tessellate": -1, "extrude": 0, "visibility": -1, "drawOrder": null, "icon": null }, "geometry": { "type": "Point", "coordinates": [ -8.685095, 42.4462735, 0.0 ] } },
{ "type": "Feature", "properties": { "Name": "Iglesia de Santa María de Sacos", "description": null, "timestamp": null, "begin": null, "end": null, "altitudeMode": null, "tessellate": -1, "extrude": 0, "visibility": -1, "drawOrder": null, "icon": null }, "geometry": { "type": "Point", "coordinates": [ -8.4939611, 42.5140286, 0.0 ] } },
{ "type": "Feature", "properties": { "Name": "Iglesia Santa María de Xanza", "description": null, "timestamp": null, "begin": null, "end": null, "altitudeMode": null, "tessellate": -1, "extrude": 0, "visibility": -1, "drawOrder": null, "icon": null }, "geometry": { "type": "Point", "coordinates": [ -8.6515088, 42.6934824, 0.0 ] } },
{ "type": "Feature", "properties": { "Name": "Iglesia de Santa María de Corvelle", "description": null, "timestamp": null, "begin": null, "end": null, "altitudeMode": null, "tessellate": -1, "extrude": 0, "visibility": -1, "drawOrder": null, "icon": null }, "geometry": { "type": "Point", "coordinates": [ -7.3569372, 42.8068438, 0.0 ] } },
{ "type": "Feature", "properties": { "Name": "Iglesia de San Xiao do Camiño", "description": null, "timestamp": null, "begin": null, "end": null, "altitudeMode": null, "tessellate": -1, "extrude": 0, "visibility": -1, "drawOrder": null, "icon": null }, "geometry": { "type": "Point", "coordinates": [ -7.9041575, 42.874271, 0.0 ] } },